,Restaurant_id,Name,Locality,Address,City,Latitude,Longitude,Zip Code,Cuisines,Price Range,Average Cost for two,User Rating,Rating Text,Votes,all_reviews_count
0,15547004,Restaurant Hubert,CBD,"15 Bligh Street, CBD, Sydney",Sydney,-33.8653483310,151.2106238678,2000,"French, European",4,150,4.9,Excellent,590,224
1,16558798,Quay,Circular Quay,"Upper Level, Overseas Passenger Terminal 5 Hickson Road, Circular Quay, Sydney",Sydney,-33.8580292558,151.2099704146,2000,Modern Australian,4,500,4.9,Excellent,1366,454
2,16559171,Tetsuya's,CBD,"529 Kent Street, CBD, Sydney",Sydney,-33.8751428662,151.2049315497,,Japanese,4,440,4.9,Excellent,1234,329
3,16569454,LuMi Bar & Dining,Pyrmont,"56 Pirrama Road, 	Pyrmont, Pyrmont, Sydney",Sydney,-33.8671367304,151.1975169182,2009,"Italian, Japanese",4,190,4.9,Excellent,452,196
4,15545439,Manpuku,Chatswood,"226 Victoria Avenue, Chatswood, Sydney",Sydney,-33.7944174758,151.1895420402,2067,"Japanese, Ramen",2,40,4.9,Excellent,486,190
5,16564814,Sixpenny,Stanmore,"83 Percival Rd, Stanmore, Sydney",Sydney,-33.8925519485,151.1647349596,2048,Modern Australian,4,280,4.9,Excellent,230,107
6,16559140,Tan Viet Noodle House,Cabramatta,"Shop 2-3, 100 John Street, Cabramatta, Sydney",Sydney,-33.8950410955,150.9341628850,2166,"Asian, Vietnamese",2,35,4.9,Excellent,463,182
7,16564570,Sokyo,"The Star, Pyrmont","Level G, The Darling, The Star, 80 Pyrmont Street, Pyrmont",Sydney,-33.8693380000,151.1959700000,2009,Japanese,4,120,4.8,Excellent,1401,567
8,18241437,KOI Dessert Bar,"Kensington Street, Chippendale","46 Kensington Street, Chippendale, Sydney",Sydney,-33.8854879306,151.2018050998,2008,"Desserts, Modern Australian",4,150,4.8,Excellent,996,437
9,16562527,Bistro Papillon,CBD,"98 Clarence Street, CBD, Sydney",Sydney,-33.8680359270,151.2053140998,2000,French,3,80,4.8,Excellent,505,155
10,17744148,Ho Jiak Haymarket 好吃禧市,Haymarket,"92 Hay Street, Chinatown, Haymarket, Sydney",Sydney,-33.8793663848,151.2040541321,,"Malaysian, Asian, Chinese, Asian Fusion, Singaporean",3,70,4.8,Excellent,553,218
11,16564699,The Baxter Inn,CBD,"Basement, 152-156 Clarence Street, CBD, Sydney",Sydney,-33.8697479935,151.2056279182,2000,Bar Food,3,60,4.8,Excellent,701,142
12,16567404,Ester,Chippendale,"46-52 Meagher Street, Chippendale, Sydney",Sydney,-33.8876201951,151.2009685859,2008,Modern Australian,4,150,4.8,Excellent,394,190
13,15544520,Five Points Burgers,North Sydney,"124 Walker Street, North Sydney, Sydney",Sydney,-33.8372437721,151.2090309709,2060,"Burger, American",2,40,4.8,Excellent,332,169
14,17744990,The Dolar Shop Hot Pot Restaurant 豆捞坊 - 1909 Dining Precinct,"Market City, Chinatown","Shop 5&6, Level 3, 1909 Dining Precinct, Market City, 9 - 13 Hay Street, Chinatown, Haymarket, Sydney",Sydney,-33.8797716623,151.2029835954,2000,"Chinese, Hot Pot, Asian, Seafood",4,120,4.8,Excellent,277,110
15,16562756,Mappen Noodle Restaurant,"SkyView Shopping Plaza, CBD","Shop 11, Skyview Shopping Plaza, 537-551 George Street, CBD, Sydney",Sydney,-33.8761343944,151.2058719993,2000,"Japanese, Asian",1,25,4.7,Excellent,1372,363
16,16557237,Bar Luca,CBD,"52 Phillip Street, CBD, Sydney",Sydney,-33.8640203701,151.2119307742,2000,"Burger, Modern Australian",3,60,4.7,Excellent,624,305
17,16570446,Belly Bao,Newtown,"184 King Street, Newtown, Sydney",Sydney,-33.8944995230,151.1825656146,2042,"Taiwanese, Street Food",2,40,4.7,Excellent,419,199
18,16558906,Ryo's Noodles,Crows Nest,"125 Falcon Street, Crows Nest, Sydney",Sydney,-33.8285150000,151.2066320000,2065,"Japanese, Ramen",2,50,4.7,Excellent,818,256
19,16559190,Thai Pothong,Newtown,"294 King Street, Newtown, Sydney",Sydney,-33.8967473326,151.1796621233,2042,Thai,4,100,4.7,Excellent,1031,289
20,16558689,Pasticceria Papa,Haberfield,"145 Ramsay Street, Haberfield, Sydney",Sydney,-33.8809142787,151.1397293954,2045,"Coffee and Tea, Italian, Cafe Food",1,20,4.7,Excellent,516,170
21,16558417,Malay Chinese Takeaway,CBD,"Shop 1, 50-58 Hunter Street, CBD, Sydney",Sydney,-33.8659722149,151.2096405029,2000,"Chinese, Malaysian",2,35,4.7,Excellent,418,155
22,16558782,Prime Steak Restaurant,"GPO Grand, CBD","Lower Ground Floor, GPO Grand, 1 Martin Place, CBD, Sydney",Sydney,-33.8679170555,151.2081260607,2000,"French, Steak",4,200,4.7,Excellent,233,73
23,16564943,Claire's Kitchen at Le Salon,Surry Hills,"35 Oxford Street, Surry Hills, Sydney",Sydney,-33.8779570839,151.2134767324,2010,French,4,120,4.7,Excellent,340,151
24,16561357,Ormeggio At The Spit,"D'Albora Marinas, Mosman","D'Albora Marinas The Spit, Spit Road, Mosman, Sydney",Sydney,-33.8042245992,151.2458385800,2088,Italian,4,300,4.7,Excellent,286,131
25,16562375,Hugos Manly,"Manly Wharf, Manly","Shop 1, Manly Wharf, 21 East Esplanade, Manly, Sydney",Sydney,-33.7998783991,151.2838900834,,"Modern Australian, Tapas",4,130,4.7,Excellent,467,157
26,16566785,Suzuya,Surry Hills,"210 Devonshire Street, Surry Hills, Sydney",Sydney,-33.8878336691,151.2113839388,2010,Japanese,3,65,4.7,Excellent,193,75
27,16559994,Vina Vegan Restaurant,Newtown,"395 King Street, Newtown, Sydney",Sydney,-33.8997403312,151.1778915301,2042,"Vietnamese, Vegetarian, Vegan",2,45,4.7,Excellent,155,62
28,16561314,Il Grappolo,Rozelle,"1, 41 Terry Street, Rozelle, Sydney",Sydney,-33.8611411018,151.1684055626,2039,"Italian, Pizza",4,100,4.7,Excellent,142,55
29,16566567,Jasmin1,Auburn,"22 Civic Road, Auburn, Sydney",Sydney,-33.8509916166,151.0337492824,2144,"Middle Eastern, Seafood, Arabian, BBQ, Falafel, Lebanese, Sandwich, Salad",2,40,4.7,Excellent,221,112
30,16558886,Rosso Pomodoro,Balmain,"20-24 Buchanan Street, Balmain, Sydney",Sydney,-33.8634181873,151.1801553145,2041,"Italian, Pizza, Vegetarian",3,60,4.7,Excellent,307,98
31,16558450,Masuya Japanese Seafood Restaurant,CBD,"Basement Level, 12-14 O'Connell Street, CBD, Sydney",Sydney,-33.8652275069,151.2097836658,2000,"Japanese, Hot Pot, Sushi",3,80,4.6,Excellent,783,194
32,16562670,Home Thai,CBD,"Shop 1-2, 299 Sussex Street, CBD, Sydney",Sydney,-33.8746117452,151.2042200938,2000,"Thai, Salad",3,60,4.6,Excellent,1499,521
33,16559790,Rockpool Bar & Grill,CBD,"66 Hunter Street, CBD, Sydney",Sydney,-33.8661673691,151.2103288248,2000,"Seafood, Steak, Modern Australian, Poké",4,150,4.6,Excellent,1352,393
34,16557552,Chat Thai - Haymarket,Haymarket,"20 Campbell Street, Haymarket, Sydney",Sydney,-33.8792191372,151.2063326687,2000,"Thai, Salad",2,55,4.6,Excellent,2010,496
35,16559232,Toko,Surry Hills,"490 Crown Street, 	Surry Hills",Sydney,-33.8868436684,151.2138777226,2010,Japanese,4,100,4.6,Excellent,1361,314
36,16557481,Cafe Sydney,CBD,"Level 5, Customs House, 31 Alfred Street, CBD, Sydney",Sydney,-33.8624231705,151.2108987942,2000,"Seafood, Modern Australian",4,160,4.6,Excellent,1387,370
37,16557570,China Doll,Woolloomooloo,"Shop 4, 6 Cowper Wharf Road, Woolloomooloo, Sydney",Sydney,-33.8684582400,151.2203391641,2011,"Asian, Chinese",4,150,4.6,Excellent,919,262
38,16558709,The Restaurant Pendolino,"The Strand Arcade, CBD","Shop 100-102, Level 2, The Strand Arcade, 412-414 George Street, CBD, Sydney",Sydney,-33.8690044320,151.2072345614,2000,Italian,4,250,4.6,Excellent,783,192
39,16569275,Do Dee Paidang Thai,Haymarket,"Shop 9, 37 Ultimo Road, Haymarket, Sydney",Sydney,-33.8805682943,151.2031374872,2000,"Thai, Asian",2,35,4.6,Excellent,406,167
40,16557372,The Boathouse on Blackwattle Bay,Glebe,"123 Ferry Road, Glebe, Sydney",Sydney,-33.8735085731,151.1881677434,2037,"Seafood, Modern Australian",4,200,4.6,Excellent,452,139
41,16568019,Jang Ta Bal Korean Charcoal BBQ,Strathfield,"48A The Boulevarde, Strathfield, Sydney",Sydney,-33.8742735297,151.0941754282,2135,Korean BBQ,3,90,4.6,Excellent,332,105
42,16559243,Toriciya Japanese,Cammeray,"18 Cammeray Road, Cammeray, Sydney",Sydney,-33.8227617286,151.2191211060,2062,"Japanese, Sushi",4,100,4.6,Excellent,302,80
43,16557783,El Jannah,Granville,"4-8 South Street, Granville, Sydney",Sydney,-33.8328583097,151.0110802576,2142,"Lebanese, Charcoal Chicken",2,35,4.6,Excellent,1065,319
44,16714055,Yang San Park,Haymarket,"21/1 Dixon Street, Haymarket",Sydney,-33.8774944563,151.2038576603,2000,Korean BBQ,2,40,4.6,Excellent,328,113
45,16557297,Bentley Restaurant and Bar - Radisson Blu Plaza Hotel,Radisson Blu Plaza Hotel CBD,"Radisson Blue Plaza Hotel, 27 O'Connell Street, CBD, Sydney",Sydney,-33.8656506689,151.2088931724,2000,Modern Australian,4,170,4.6,Excellent,403,178
46,16557068,A Tavola,Darlinghurst,"348 Victoria Street, Darlinghurst, Sydney",Sydney,-33.8778922271,151.2215977907,2010,Italian,3,90,4.6,Excellent,453,138
47,16570503,Nel. Restaurant,CBD,"75 Wentworth Avenue, CBD, Sydney",Sydney,-33.8793858693,151.2095429376,2000,"British, Australian",4,220,4.6,Excellent,200,95
48,15544558,The Rice Den,St Leonards,"30-32 Chandos Street, St Leonards, Sydney",Sydney,-33.8219921325,151.1962800846,2065,"Cantonese, Chinese",3,80,4.6,Excellent,273,112
49,16564297,Kanzo,Parramatta,"Shop 6/55-67 George Street, Parramatta, Sydney",Sydney,-33.8141116610,151.0049671680,2150,"Japanese, Sushi",2,40,4.6,Excellent,401,169
50,16569240,LP's Quality Meats,Chippendale,"Suite 1, 12-16 Chippen Street, Chippendale, Sydney",Sydney,-33.8875506142,151.2011204660,2008,Australian,3,75,4.6,Excellent,226,104
51,16567175,The Lobo Plantation,CBD,"Basement, 209 Clarence Street, CBD, Sydney",Sydney,-33.8700157966,151.2053895369,2000,"Bar Food, Latin American",3,80,4.6,Excellent,214,69
52,16564597,Holy Basil,Shark Hotel,"Shark Hotel, 127 Liverpool Street, CBD, Sydney",Sydney,-33.8769015544,151.2080526352,2000,"Thai, Laotian, Salad",3,80,4.6,Excellent,493,200
53,16557180,Ayam Goreng 99,Kingsford,"464 Anzac Parade, Kingsford, Sydney",Sydney,-33.9221480000,151.2273340000,2032,"Indonesian, Fried Chicken",2,40,4.6,Excellent,439,150
54,16563274,Grandma's Bar,CBD,"Basement, 275 Clarence Street, 	CBD",Sydney,-33.8721815743,151.2055256590,2000,"Bar Food, Sandwich",3,90,4.6,Excellent,268,57
55,16562676,Cappello Pizzeria,Balmain East,"79 Darling Street, Balmain East, Sydney",Sydney,-33.8575044320,151.1924187094,2041,"Italian, Pizza",3,60,4.6,Excellent,193,61
56,16557244,Bar Reggio,Darlinghurst,"135 Crown Street, Darlinghurst, Sydney",Sydney,-33.8761700247,151.2158337236,2010,"Italian, Pizza",3,60,4.6,Excellent,383,108
57,16565993,Nom,Darlinghurst,"166 Riley Street, Darlinghurst, Sydney",Sydney,-33.8778977942,151.2146310881,2010,Japanese,2,45,4.6,Excellent,153,42
58,16568870,Lentil As Anything,Newtown,"391 King Street, Newtown, Sydney",Sydney,-33.8997350438,151.1778519675,2042,"Vegetarian, Vegan",1,20,4.6,Excellent,195,92
59,16564484,BahBQ Brazilian Grill,Crows Nest,"35 Albany Street, Crows Nest, Sydney",Sydney,-33.8242677548,151.2016357854,2065,"BBQ, Brazilian",4,120,4.6,Excellent,206,87
60,16557778,Efendy Restaurant - Meze Bar,Balmain,"79 Elliott Street, Balmain, Sydney",Sydney,-33.8564686962,151.1726300418,2041,Turkish,4,100,4.6,Excellent,278,124
61,16560977,Hukuya,Eastwood,"25 Railway Parade, Eastwood, Sydney",Sydney,-33.7903009352,151.0829178616,2122,"Japanese, Sushi",3,60,4.6,Excellent,259,104
62,16560596,Pho Tau Bay,Cabramatta,"Shop 12, 117 John Street, Cabramatta, Sydney",Sydney,-33.8943923769,150.9338490665,2166,"Vietnamese, Pho",2,45,4.6,Excellent,222,89
63,16558414,Malabar,Darlinghurst,"274 Victoria Street, Darlinghurst, Sydney",Sydney,-33.8760497726,151.2220970169,2010,Indian,3,80,4.6,Excellent,288,100
64,16566922,Farmhouse Kings Cross,Rushcutters Bay,"4/40 Bayswater Road, Rushcutters Bay, Sydney",Sydney,-33.8750060000,151.2248230000,2011,Modern Australian,4,110,4.6,Excellent,105,61
65,16561142,Out of the Blue,Coogee,"272 Clovelly Road, Clovelly, Sydney",Sydney,-33.9122505120,151.2582981213,2031,"Burger, Seafood, Fish and Chips",1,20,4.6,Excellent,173,62
66,16560009,The Yeeros Shop,Marrickville,"431 Illawarra Road, Marrickville, Sydney",Sydney,-33.9156975988,151.1506560445,2204,Greek,1,20,4.6,Excellent,147,55
67,16557949,Glebe Point Diner,Glebe,"407 Glebe Point Road, Glebe, Sydney",Sydney,-33.8747239267,151.1832180619,2037,Modern Australian,4,120,4.6,Excellent,241,49
68,15544399,Jasmins Lebanese Restaurant,Lakemba,"30B Haldon Street, Lakemba, Sydney",Sydney,-33.9188268174,151.0762636364,2195,Lebanese,2,30,4.6,Excellent,156,59
69,16562176,3 Olives,Newtown,"365 King Street, Newtown, Sydney",Sydney,-33.8989302421,151.1776947230,2042,"Greek, Mediterranean",3,85,4.6,Excellent,154,77
70,16559765,Yiamas Greek Taverna,St. Peters,"5 Princes Hwy, St. Peters, Sydney",Sydney,-33.9089095791,151.1808808520,,Greek,2,55,4.6,Excellent,101,48
71,16563995,Bondi's Best,North Bondi,"Shop 1, 39-53 Campbell Parade, North Bondi, Sydney",Sydney,-33.8896842187,151.2838441506,2026,"Seafood, Sushi",3,80,4.6,Excellent,107,36
72,16559413,La Piadina,Bondi Beach,"106 Glenayr Avenue, Bondi Beach, Sydney",Sydney,-33.8862614080,151.2738294527,2026,"Italian, Pizza, Cafe Food, Coffee and Tea",2,35,4.6,Excellent,101,31
73,16565634,Mr. Wong,"Establishment, CBD","Establishment, 3 Bridge Lane, CBD, Sydney",Sydney,-33.8642497720,151.2081934512,2000,"Cantonese, Chinese, Yum Cha",4,120,4.5,Excellent,1703,649
74,18347530,Kobe Wagyu Yakiniku,CBD,"Level 1, 605 George Street, Chinatown, CBD, Sydney",Sydney,-33.8776283458,151.2053224817,2000,"Japanese BBQ, BBQ, Healthy Food, Japanese, Oriental, Seafood, Steak, Asian",4,160,4.5,Excellent,898,606
75,16566109,Ippudo,"Westfield Pitt Street Mall, CBD","Shop 5021, Level 5, Westfield Pitt Street Mall, 188 Pitt Street, CBD, Sydney",Sydney,-33.8698329000,151.2089890614,2000,"Japanese, Ramen",3,70,4.5,Excellent,1844,602
76,16563159,Ms. G's,Potts Point,"155 Victoria Street, Potts Point, Sydney",Sydney,-33.8726260000,151.2224250000,2011,"Asian, Vietnamese, Salad",4,100,4.5,Excellent,1336,467
77,16564684,Buffalo Dining Club,Darlinghurst,"116 Surrey Street Darlinghurst, Darlinghurst, Sydney",Sydney,-33.8776002318,151.2219997868,02010,Italian,3,70,4.5,Excellent,517,192
78,16569007,Cho Cho San,Potts Point,"73 Macleay Street, Potts Point, Sydney",Sydney,-33.8694200000,151.2252580000,2011,"Japanese, Asian, Fusion",4,120,4.5,Excellent,610,251
79,16559086,Suminoya Japanese,CBD,"1 Hosking Place, CBD, Sydney",Sydney,-33.8671595584,151.2095711008,2000,Japanese BBQ,3,80,4.5,Excellent,506,124
80,17743923,Juan Bowl & Tea,Redfern,"Shop 5 94A Pitt Street, Redfern, Sydney",Sydney,-33.8930952033,151.2038985640,,"Japanese, Tea",3,80,4.5,Excellent,341,117
81,16558421,Mamak,Haymarket,"15 Goulburn Street, 	Haymarket",Sydney,-33.8777433068,151.2042368576,2000,Malaysian,3,70,4.5,Excellent,2378,670
82,16557807,Encasa,Haymarket,"423 Pitt Street, Haymarket, Sydney",Sydney,-33.8786512990,151.2072167918,2000,Spanish,3,80,4.5,Excellent,668,190
83,16559500,Miso Japanese Restaurant,"World Square, CBD","Shop 20, World Square Shopping Centre, 644 George Street, CBD, Sydney",Sydney,-33.8773864538,151.2071447074,2000,Japanese,3,60,4.5,Excellent,623,199
84,16557718,Din Tai Fung,"World Square, CBD","Level 1, Shop 11.04, World Square Shopping Centre, 644 George Street, CBD, Sydney",Sydney,-33.8776038504,151.2066773325,2000,"Chinese, Taiwanese, Yum Cha",3,70,4.5,Excellent,2166,571
85,16564479,BLACK Bar & Grill,"The Star, Pyrmont","80 Pyrmont Street,Pyrmont, Sydney",Sydney,-33.8677330408,151.1957342550,2009,"Steak, Modern Australian",4,150,4.5,Excellent,550,254
86,16569582,Chaco Ramen,Darlinghurst,"238 Crown Street, Darlinghurst, Sydney",Sydney,-33.8782078816,151.2154800072,2010,Ramen,2,50,4.5,Excellent,312,107
87,16563069,Felix Bistro and Bar,"Ivy, CBD","Ivy, 2 Ash Street, CBD, Sydney",Sydney,-33.8666573406,151.2077545747,2000,French,4,120,4.5,Excellent,713,255
88,16565382,Hartsyard,Newtown,"33 Newtown Road, Newtown, Sydney",Sydney,-33.8983636483,151.1769510806,2042,Modern Australian,4,100,4.5,Excellent,713,234
89,16557948,glass brasserie & wine bar,"Hilton Sydney, CBD","Level 2, Hilton Sydney Hotel, 488 George Street, CBD, Sydney",Sydney,-33.8723160288,151.2073871121,02000,"Modern Australian, French, Tapas",4,150,4.5,Excellent,672,243
90,16558549,Masuya Suisan,Haymarket,"Shop 5, 447 Pitt Street, Chinatown, Haymarket, Sydney",Sydney,-33.8795698589,151.2070474774,2000,"Sushi, Japanese",3,80,4.5,Excellent,469,159
91,16566332,Mr Crackles,Darlinghurst,"155 Oxford Street, Darlinghurst, Sydney",Sydney,-33.8801504949,151.2160523236,2010,"Sandwich, Fast Food, Salad, Fried Chicken, American",2,35,4.5,Excellent,617,229
92,16557373,Bodega,Surry Hills,"Entrance On, 50 Holt Street, Gladstone St, Surry Hills NSW 2010, Australia",Sydney,-33.8863632760,151.2093236670,2010,"Latin American, Tapas",3,80,4.5,Excellent,803,194
93,16558176,Jazushi,Surry Hills,"145 Devonshire Street, Surry Hills",Sydney,-33.8871484351,151.2094493955,2010,Japanese,3,60,4.5,Excellent,498,149
94,16558647,Otto Ristorante,Woolloomooloo,"Shop 8, 6 Cowper Wharf Road, Woolloomooloo, Sydney",Sydney,-33.8682196627,151.2205148488,2011,Italian,4,160,4.5,Excellent,507,226
95,16564486,Oiden Bowl Restaurant,"SkyView Shopping Plaza, CBD","Shop 12, SkyView Shopping Plaza, 537-551 George Street, CBD, Sydney",Sydney,-33.8759824091,151.2059239671,2000,"Japanese, Salad, Poké",2,30,4.5,Excellent,553,185
96,17744545,Gogyo,Surry Hills,"52-54 Albion Street, Surry Hills, Sydney",Sydney,-33.8822684191,151.2104351074,,"Japanese, Ramen",2,50,4.5,Excellent,341,116
97,16558841,Rengaya,North Sydney,"Shop 1, 101 Miller Street, North Sydney, Sydney",Sydney,-33.8399768092,151.2067222595,2060,"Japanese BBQ, Japanese",2,50,4.5,Excellent,328,112
98,16558981,Shiki Japanese Restaurant,The Rocks,"Level 1, Clock Tower, The Rocks Centre, 35-75 Harrington Street, The Rocks, Sydney",Sydney,-33.8592451082,151.2078625336,2000,"Japanese, Seafood, Hot Pot",4,120,4.5,Excellent,247,75
99,16542060,Chat Thai - Westfield Pitt Street Mall,"Westfield Pitt Street Mall, CBD","Level 6, Westfield Pitt Street Mall, 188 Pitt Street, CBD, Sydney",Sydney,-33.8699804422,151.2090323120,,"Thai, Salad",2,55,4.5,Excellent,730,278
0,16585905,Tipo 00,CBD,"361 Little Bourke Street, CBD, Melbourne",Melbourne,-37.8135277429,144.9619733915,3000,Italian,4,150,4.9,Excellent,1927,717
1,16586014,Minamishima,Richmond,"4 Lord Street, Richmond, Melbourne, VIC",Melbourne,-37.8198314176,145.0051938370,3121,"Japanese, Sushi",4,450,4.9,Excellent,748,290
2,16572612,Vue de monde,CBD,"Level 55, Rialto, 525 Collins Street, CBD, Melbourne",Melbourne,-37.8189544974,144.9579336494,3000,"Australian, Contemporary",4,600,4.9,Excellent,3225,986
3,17881527,Dexter,Preston,"456 High Street, Preston, Melbourne",Melbourne,-37.7361956460,145.0044562295,,"American, BBQ",4,110,4.9,Excellent,1473,684
4,16574138,Suzuran,Camberwell,"1025 Burke Road, Camberwell, Melbourne",Melbourne,-37.8217645249,145.0584645197,3124,"Japanese, Sushi",2,35,4.9,Excellent,805,194
5,16575773,Scopri Italian Food & Wine,Carlton,"191, Nicholson Street, Carlton, Melbourne",Melbourne,-37.7957182787,144.9751148745,3053,Italian,4,180,4.9,Excellent,458,193
6,16575846,Pho Hung Vuong Springvale,Springvale,"Shop 2, 15 Balmoral Avenue, Springvale, Melbourne",Melbourne,-37.9494092102,145.1510185003,3171,"Vietnamese, Pho",2,40,4.9,Excellent,923,305
7,16580129,Yeonga Korean BBQ Restaurant,North Melbourne,"1 Cobden Street, North Melbourne, Melbourne",Melbourne,-37.8056389159,144.9570951238,3051,"Korean BBQ, Korean, BBQ",4,100,4.8,Excellent,1565,520
8,16582887,Rice Paper Scissors,CBD,"15, Hardware Lane, CBD, Melbourne",Melbourne,-37.8143130000,144.9614020000,3000,"Asian Fusion, Tapas",3,80,4.8,Excellent,2565,991
9,16572320,Shira Nui,Glen Waverley,"247 Springvale Road, Glen Waverley, Melbourne",Melbourne,-37.8788198823,145.1657683030,3150,"Sushi, Japanese",4,150,4.8,Excellent,1634,420
10,16572155,Punch Lane,CBD,"43 Little Bourke Street, CBD, Melbourne",Melbourne,-37.8108116997,144.9713500589,3000,"Mediterranean, Modern Australian",4,150,4.8,Excellent,1089,429
11,17868098,Bahari The Hellenic Palate,Richmond,"179 Swan Street, Richmond, Melbourne, VIC",Melbourne,-37.8255876855,144.9975740165,3121,Greek,3,80,4.8,Excellent,755,394
12,16570775,Attica,Ripponlea,"74 Glen Eira Road, Ripponlea, Melbourne",Melbourne,-37.8769242618,144.9973121658,3185,"Australian, Contemporary",4,600,4.8,Excellent,1485,491
13,16579337,Aka Siro,Collingwood,"106, Cambridge Street, Collingwood, Melbourne",Melbourne,-37.8051562667,144.9855748192,3066,Japanese,3,80,4.8,Excellent,841,236
14,16573311,The Proud Peacock,Mount Waverley,"28 Hamilton Place, Mount Waverley, Melbourne",Melbourne,-37.8759680969,145.1287893578,3149,"Chinese, Thai, Vietnamese",2,45,4.8,Excellent,1353,625
15,16574371,Railway Club Hotel Port Melbourne,Port Melbourne,"107 Raglan Street, Port Melbourne, Melbourne",Melbourne,-37.8338037913,144.9444773421,3207,"Steak, Pub Food",4,120,4.8,Excellent,862,308
16,16571744,Lentil As Anything,Abbotsford,"1-3 St Heliers Street, Abbotsford, Melbourne",Melbourne,-37.8027048265,145.0035664067,3067,"Vegetarian, Vegan",1,25,4.8,Excellent,976,247
17,16582069,Jinda Thai Restaurant,Abbotsford,"7 Ferguson Street, Abbotsford, Melbourne",Melbourne,-37.8093087478,144.9923685193,3067,Thai,3,80,4.7,Excellent,3231,1031
18,16571938,MoVida Bar De Tapas,CBD,"1 Hosier Lane, CBD, Melbourne",Melbourne,-37.8167026904,144.9691895396,3000,"Spanish, Tapas",4,120,4.7,Excellent,4323,899
19,16585400,Hakata Gensuke Ramen Professionals,CBD,"168 Russell Street, CBD, Melbourne",Melbourne,-37.8123360761,144.9680422247,3000,"Ramen, Japanese",3,50,4.7,Excellent,2334,843
20,16571189,Cumulus Inc.,CBD,"Ground Level, 45 Flinders Lane, CBD, Melbourne",Melbourne,-37.8147943480,144.9731357396,3000,"Modern European, Contemporary",4,150,4.7,Excellent,4951,1125
21,16582573,Mr. Miyagi,Windsor,"99 Chapel Street, Windsor, Melbourne, VIC",Melbourne,-37.8542571942,144.9928734452,3181,"Asian, Japanese",3,80,4.7,Excellent,2022,905
22,16577621,Komeyui,South Melbourne,"181 Ferrars Street, South Melbourne, Melbourne",Melbourne,-37.8302880000,144.9538430000,3207,"Japanese, Japanese BBQ",4,150,4.7,Excellent,769,245
23,16583132,Wagyu Ya,South Yarra,"156 Toorak Road, South Yarra, Melbourne",Melbourne,-37.8390709816,144.9914190173,3141,"Japanese, Steak, Japanese BBQ",4,150,4.7,Excellent,1116,385
24,16573067,Cutler & Co,Fitzroy,"55-57 Gertrude Street, Fitzroy, Melbourne",Melbourne,-37.8055705717,144.9759430066,3065,Modern Australian,4,200,4.7,Excellent,2075,569
25,16572325,Shoya Nouvelle Wafu Cuisine,CBD,"25 Market Lane, CBD, Melbourne",Melbourne,-37.8117808942,144.9692287669,3000,"Japanese, Sushi, Japanese BBQ",4,140,4.7,Excellent,1511,387
26,16578925,Hell of the North,Fitzroy,"135 Greeves Street, Fitzroy, Melbourne",Melbourne,-37.8003351649,144.9835487455,3065,"French, European",4,135,4.7,Excellent,1335,418
27,16571812,Maha Restaurant,CBD,"21 Bond Street, CBD, Melbourne",Melbourne,-37.8181668230,144.9626845121,3000,Middle Eastern,4,300,4.7,Excellent,2638,929
28,16582991,Sezar,CBD,"6 Melbourne Place, CBD, Melbourne",Melbourne,-37.8134347730,144.9688998610,3000,Middle Eastern,4,120,4.7,Excellent,944,410
29,16571710,Laksa King,Flemington,"6-12 Pin Oak Crescent, Flemington, Melbourne",Melbourne,-37.7877957536,144.9294968694,3031,"Malaysian, Chinese",3,70,4.7,Excellent,4967,1302
30,16572254,Rumi Brunswick,Brunswick,"116 Lygon Street, East Brunswick, Melbourne",Melbourne,-37.7748421244,144.9712652341,3057,Middle Eastern,4,100,4.7,Excellent,1792,470
31,16571144,Claypots Seafood Bar,St Kilda,"213 Barkly Street, St Kilda, Melbourne, VIC",Melbourne,-37.8699640609,144.9806107208,3182,Seafood,3,90,4.7,Excellent,1336,356
32,16571694,La Luna Bistro,Carlton North,"320 Rathdowne Street, Carlton North, Melbourne",Melbourne,-37.7911334282,144.9718352035,3054,"Modern Australian, Steak, Mediterranean",4,160,4.7,Excellent,1450,415
33,16580906,Milk the Cow,St Kilda,"157 Fitzroy Street, St Kilda, Melbourne, VIC",Melbourne,-37.8588823312,144.9794898927,3182,Bar Food,3,80,4.7,Excellent,631,256
34,16570870,Bistro Thierry,Toorak,"511 Malvern Road, Toorak, Melbourne, VIC",Melbourne,-37.8482442410,145.0038185343,3141,French,4,200,4.7,Excellent,799,242
35,16571855,Matteo's Restaurant,Fitzroy North,"533, Brunswick Street, Fitzroy North, Melbourne",Melbourne,-37.7911649575,144.9795908108,3068,"Asian, Fusion",4,280,4.7,Excellent,755,262
36,16571541,Il Bacaro Cucina e Bar,CBD,"168-170 Little Collins Street, CBD, Melbourne",Melbourne,-37.8139189572,144.9680127204,3000,Italian,4,200,4.7,Excellent,682,219
37,16572845,Pho Hung Vuong Saigon,Footscray,"128 Hopkins Street, Footscray, Melbourne",Melbourne,-37.7998159220,144.9006503820,3011,"Vietnamese, Pho",2,40,4.7,Excellent,1102,362
38,16573923,Aoba,Malvern,"279 Glenferrie Road, Malvern, Melbourne",Melbourne,-37.8569867272,145.0291385874,3144,Japanese,3,50,4.7,Excellent,637,194
39,16577899,Myong Tofu,Flemington,"314 Racecourse Road, Flemington, Melbourne",Melbourne,-37.7881076154,144.9302398413,,"Malaysian, Chinese",3,70,4.7,Excellent,694,312
40,16570683,A1 Bakery,Brunswick,"643-645 Sydney Road, Brunswick, Melbourne",Melbourne,-37.7620394278,144.9628776312,3056,"Bakery, Middle Eastern",2,30,4.7,Excellent,916,248
41,16570691,The Abyssinian,Flemington,"277 Racecourse Road, Flemington, Melbourne",Melbourne,-37.7885320846,144.9318387732,3031,"African, Ethiopian",3,60,4.7,Excellent,632,201
42,16574463,Katik Take Away Food,Campbellfield,"349 Barry Road, Campbellfield, Melbourne, VIC",Melbourne,-37.6668740186,144.9482334405,3061,"Middle Eastern, Turkish",2,40,4.7,Excellent,284,109
43,16573158,Fresh Chilli Thai Restaurant,Laverton,"Shop 11, 5 Aviation Road, Laverton, Melbourne",Melbourne,-37.8674385462,144.7619231790,0,"Asian, Thai",3,60,4.7,Excellent,464,193
44,16577492,Chin Chin,CBD,"125 Flinders Lane, CBD, Melbourne",Melbourne,-37.8155645773,144.9703757465,3000,"Thai, Asian Fusion",4,135,4.6,Excellent,10757,3205
45,16578345,San Telmo,CBD,"14 Meyers Place, CBD, Melbourne",Melbourne,-37.8122960798,144.9723887444,3000,Steak,4,120,4.6,Excellent,2377,769
46,18584637,Dodee Paidang,CBD,"Basement, 353 Equitable Place, CBD, Melbourne",Melbourne,-37.8157595172,144.9631257355,3000,Thai,3,75,4.6,Excellent,1285,466
47,16572269,Sakura Kaiten Sushi,CBD,"61 Little Collins Street, CBD, Melbourne",Melbourne,-37.8128928430,144.9717513844,0,"Sushi, Japanese",3,60,4.6,Excellent,1853,434
48,16573473,Peko Peko,South Melbourne,"190 Wells Street, South Melbourne, Melbourne",Melbourne,-37.8318858285,144.9697920308,3205,"Taiwanese, Japanese, Asian",3,50,4.6,Excellent,1987,513
49,16572962,+39 Pizzeria,CBD,"362 Little Bourke Street, CBD, Melbourne",Melbourne,-37.8134906609,144.9618449807,3000,"Pizza, Italian",4,100,4.6,Excellent,2701,807
50,16571628,Kenzan Japanese,Collins Place,"Collins Place, Lower Ground Level, 45 Collins Street, CBD, Melbourne",Melbourne,-37.8146303951,144.9727967754,3000,"Japanese, Sushi",4,160,4.6,Excellent,964,262
51,16571240,DOC Pizza & Mozzarella Bar - Carlton,Carlton,"295 Drummond Street, Carlton, Melbourne",Melbourne,-37.7989620774,144.9685729668,3053,"Italian, Pizza",3,70,4.6,Excellent,3658,921
52,16573419,Coda,CBD,"Entrance at Oliver Lane, Basement, 141 Flinders Lane, CBD, Melbourne",Melbourne,-37.8158217601,144.9699640274,3000,"Asian, Fusion",4,145,4.6,Excellent,1987,562
53,16576154,Naked For Satan,Fitzroy,"285 Brunswick Street, Fitzroy, Melbourne",Melbourne,-37.7987986192,144.9783268198,3065,Bar Food,3,80,4.6,Excellent,4560,875
54,16579873,Shimbashi Soba & Sake Bar,CBD,"17 Liverpool Street, CBD, Melbourne",Melbourne,-37.8113361629,144.9714006856,3000,"Japanese, Tapas",3,55,4.6,Excellent,1084,366
55,16576477,Purple Peanuts Japanese Cafe,CBD,"620 Collins Street, CBD, Melbourne",Melbourne,-37.8188464377,144.9545490369,3000,"Japanese, Sushi",2,40,4.6,Excellent,2146,491
56,16574121,Don Don,CBD,"198 Little Lonsdale Street, CBD, Melbourne",Melbourne,-37.8107603127,144.9635954574,3000,"Japanese, Asian",2,30,4.6,Excellent,3166,693
57,16575158,Yong Green Food,Fitzroy,"421 Brunswick Street, Fitzroy, Melbourne",Melbourne,-37.7943851114,144.9790513516,3065,"Asian, Vegan, Vegetarian",3,90,4.6,Excellent,1797,444
58,16581307,Tonka,CBD,"20 Duckboard, CBD, Melbourne",Melbourne,-37.8157052201,144.9714006856,3000,"Indian, Contemporary",4,145,4.6,Excellent,1170,444
59,16585319,Pastuso,CBD,"19 ACDC Lane, CBD, Melbourne",Melbourne,-37.8158421546,144.9710432813,3000,"Latin American, Peruvian",4,125,4.6,Excellent,998,441
60,16571931,Moroccan Soup Bar,Fitzroy North,"183 St Georges Road, Fitzroy North, Melbourne",Melbourne,-37.7848848031,144.9823538214,3068,"Middle Eastern, Moroccan, Vegetarian, Vegan",2,40,4.6,Excellent,2253,457
61,18235287,Amaru,Armadale,"Shop 5, 1121 High Street, Armadale, Melbourne",Melbourne,-37.8559715359,145.0249432772,,Contemporary,4,450,4.6,Excellent,331,126
62,16574218,BrimCC,CBD,"Shop 2, 601 Little Collins Street, CBD, Melbourne",Melbourne,-37.8178720389,144.9548001587,3000,Japanese,2,40,4.6,Excellent,791,208
63,16573049,Oasis,Hughesdale & Murrumbeena,"Shop 9, 993 North Road, Hughesdale & Murrumbeena, Melbourne",Melbourne,-37.9073917122,145.0701498985,3163,"Bakery, Middle Eastern, Cafe Food, Coffee and Tea",3,55,4.6,Excellent,1260,458
64,16570741,Añada,Fitzroy,"197 Gertrude Street, Fitzroy, Melbourne",Melbourne,-37.8060918933,144.9811686203,3065,"Spanish, Tapas",4,110,4.6,Excellent,1232,374
65,16570811,Bar Lourinhã,CBD,"37 Little Collins Street, CBD, Melbourne",Melbourne,-37.8127039877,144.9724739045,3000,"Spanish, Tapas",4,120,4.6,Excellent,1483,274
66,16576185,Steer Dining Room,South Yarra,"15 Claremont Street, South Yarra, Melbourne",Melbourne,-37.8377068228,144.9936600029,3141,"Modern Australian, Steak",4,220,4.6,Excellent,1057,395
67,16571353,Flower Drum,CBD,"17 Market Lane, CBD, Melbourne",Melbourne,-37.8119273715,144.9692998454,3000,Chinese,4,200,4.6,Excellent,1190,392
68,16571552,Il Solito Posto,CBD,"Basement, 113 Collins Street, CBD, Melbourne",Melbourne,-37.8149206895,144.9702775106,3000,Italian,4,110,4.6,Excellent,1171,287
69,16570927,Breizoz French Creperie,Fitzroy,"Corner Gertrude & Brunswick Streets, Fitzroy, Melbourne",Melbourne,-37.8057816968,144.9767872319,3065,"Crepes, Desserts, Cafe Food",3,50,4.6,Excellent,813,227
70,16571254,Donovans,St Kilda,"40 Jacka Boulevard, St Kilda, Melbourne, VIC",Melbourne,-37.8685443628,144.9752047285,3182,Modern Australian,4,190,4.6,Excellent,1181,316
71,16574137,Tsukiji,Prahran,"237 High Street, Prahran, Melbourne, VIC",Melbourne,-37.8521367132,144.9958755076,3181,"Japanese, Sushi",3,60,4.6,Excellent,503,178
72,16582125,Tuck Shop Take Away,Caulfield,"273 Hawthorn Road, Caulfield North, Melbourne",Melbourne,-37.8799728974,145.0234006718,3161,Burger,2,40,4.6,Excellent,987,378
73,16571718,Lau's Family Kitchen,St Kilda,"4 Acland Street, St Kilda, Melbourne, VIC",Melbourne,-37.8626445412,144.9744815379,3182,"Asian, Chinese",4,170,4.6,Excellent,905,250
74,16578365,Ziggy's Eatery,Balaclava,"195 Carlisle Street, Balaclava, Melbourne, VIC",Melbourne,-37.8690022475,144.9934896827,3183,"American, Burger",3,50,4.6,Excellent,768,346
75,16572727,MoVida Next Door,CBD,"164 Flinders Street, CBD, Melbourne",Melbourne,-37.8168001589,144.9692291021,3000,"Spanish, Tapas",3,90,4.6,Excellent,1181,276
76,16571873,The Melbourne Supper Club,CBD,"Level 1, 161 Spring Street, CBD, Melbourne",Melbourne,-37.8108705034,144.9726562947,3000,Modern European,3,90,4.6,Excellent,958,187
77,16571591,Teppanyaki Inn,CBD,"182 Collins Street, CBD, Melbourne",Melbourne,-37.8148928785,144.9675885961,0,"Japanese, Teppanyaki",4,160,4.6,Excellent,459,124
78,16576637,Byblos,"World Trade Centre, Docklands","World Trade Centre, 18-38 Siddeley Street, Docklands, Melbourne",Melbourne,-37.8232923828,144.9535807595,3000,"Mediterranean, Middle Eastern, Lebanese",4,120,4.6,Excellent,653,271
79,16580785,Blu by Australian Seafood Fish & Chippery,Coburg,"146 Gaffney Street, Coburg, Melbourne",Melbourne,-37.7328337482,144.9540950730,3058,"Fish and Chips, Seafood",2,40,4.6,Excellent,599,280
80,16573379,Dandenong Pavilion,Dandenong,"55-61A Princes Highway, Dandenong, Melbourne",Melbourne,-37.9820749677,145.2107063681,3175,"Modern Australian, Burger",4,100,4.6,Excellent,1174,503
81,16580700,Spring Street Grocer,CBD,"157 Spring Street, CBD, Melbourne",Melbourne,-37.8110479735,144.9726968631,3000,"Ice Cream, Cafe Food",1,25,4.6,Excellent,589,181
82,16571132,Cicciolina,St Kilda,"130 Acland Street, St Kilda, Melbourne, VIC",Melbourne,-37.8687029024,144.9799532443,3182,"Italian, Modern Australian",4,120,4.6,Excellent,1361,315
83,16571105,Chez Olivier - Le Bistro,South Yarra,"268 Toorak Road, South Yarra, Melbourne ",Melbourne,-37.8396892401,144.9962962791,3141,French,4,150,4.6,Excellent,748,284
84,16575612,Umberto Espresso Bar,Thornbury,"822 High Street, Thornbury, Melbourne",Melbourne,-37.7533782094,145.0017311052,3071,"Italian, Cafe Food",3,90,4.6,Excellent,694,239
85,16571439,The Grand Richmond,Richmond,"333 Burnley Street, Richmond, Melbourne, VIC",Melbourne,-37.8247253994,145.0075179711,3121,"Italian, Pub Food",4,150,4.6,Excellent,695,310
86,16571958,Napier Hotel,Fitzroy,"210 Napier Street, Fitzroy, Melbourne",Melbourne,-37.8017882308,144.9802905321,3065,"Pub Food, Modern Australian",3,80,4.6,Excellent,1006,252
87,16571200,Da Noi,South Yarra,"95 Toorak Road, South Yarra, Melbourne",Melbourne,-37.8386687798,144.9896447361,3141,"Italian, Mediterranean",4,120,4.6,Excellent,500,166
88,16576707,Sumalee,Bentleigh,"260 Centre Road, Bentleigh, Melbourne",Melbourne,-37.9176467349,145.0309631601,3204,Thai,3,60,4.6,Excellent,508,190
89,16581751,O.MY,Beaconsfield,"19 Woods Street, Beaconsfield, Melbourne",Melbourne,-38.0462338720,145.3674747795,3807,Australian,4,300,4.6,Excellent,346,177
90,16573491,Demitri's Feast,Richmond,"141 Swan Street, Richmond, Melbourne, VIC",Melbourne,-37.8253988626,144.9959512800,3121,"Greek, Grill",3,55,4.6,Excellent,650,186
91,16571138,City Wine Shop,CBD,"159 Spring Street, CBD, Melbourne",Melbourne,-37.8109287772,144.9727196619,3000,European,3,80,4.6,Excellent,556,155
92,16580639,Yokoso Izakaya,Moonee Ponds,"702 Mount Alexander Road, Moonee Ponds, Melbourne, VIC",Melbourne,-37.7685367301,144.9254661799,3039,"Japanese, Sushi",3,80,4.6,Excellent,511,169
93,16578238,The Moor's Head,Thornbury,"Rear 774 High Street, Thornbury, Melbourne",Melbourne,-37.7548170889,145.0017884374,3071,"Middle Eastern, Pizza",3,90,4.6,Excellent,607,176
94,16572722,Sette Bello,Glen Waverley,"540 Springvale Road, Glen Waverley, Melbourne",Melbourne,-37.9020405141,145.1623230055,3150,Italian,4,150,4.6,Excellent,621,249
95,16575224,Khao San Road,Moonee Ponds,"696 Mount Alexander Road, Moonee Ponds, Melbourne, VIC",Melbourne,-37.7686936294,144.9255268648,3039,Thai,3,90,4.6,Excellent,586,216
96,18756821,Lanzhou Beef Noodle Bar,"The Glen, Glen Waverley","The Glen, Ground Floor, G050, 235 Springvale Rd, Glen Waverley",Melbourne,-37.8746339972,145.1660425589,3150,"Chinese, Fast Food",2,40,4.6,Excellent,1461,1053
97,19245843,Lanzhou Beef Noodle Bar,"Chadstone Shopping Centre, Chadstone","Chadstone Shopping Centre, Ground Level, Shop F021, 1341 Dandenong Road, Chadstone, Melbourne",Melbourne,-37.8873994489,145.0839448348,,"Chinese, Fast Food",2,40,4.6,Excellent,1108,934
98,16582254,Afghan Rahimi Restaurant,Dandenong,"23-29 Walker Street,   Dandenong, Dandenong, Melbourne",Melbourne,-37.9882064699,145.2118171379,3175,"Middle Eastern, Afghan",3,80,4.6,Excellent,450,293
99,16573607,Brown Rice,Aspendale & Chelsea,"249 Nepean Highway, Edithvale, Melbourne",Melbourne,-38.0373443455,145.1076672971,3196,Thai,2,40,4.6,Excellent,348,150
0,16593535,Rogue Bistro,Newstead,"14 Austin Street, Newstead, Brisbane",Brisbane,-27.4458944148,153.0443733931,4006,Modern Australian,4,140,4.9,Excellent,491,205
1,16595540,Julius Pizzeria,South Brisbane,"77 Grey Street, South Brisbane, Brisbane",Brisbane,-27.4736222160,153.0179620162,4101,"Pizza, Italian",3,80,4.9,Excellent,493,180
2,16590678,Oishii Sushi Bar,Sunnybank Hills,"Shop 2, 70 Pinelands Road, Sunnybank Hills, Brisbane",Brisbane,-27.5910676128,153.0605843291,4109,"Japanese, Sushi",2,40,4.8,Excellent,720,192
3,16590663,Grill'd - Rosalie,Rosalie Village,"Rosalie Village, Shop 19, 21 Nash Street, Paddington, Brisbane",Brisbane,-27.4654874434,152.9970585555,4064,Burger,2,40,4.8,Excellent,263,55
4,16594075,Bird's Nest Yakitori,South Brisbane,"Shop 5, 220 Melbourne Street, South Brisbane, Brisbane",Brisbane,-27.4769737009,153.0130639672,4101,"Asian, Japanese, Tapas",3,80,4.7,Excellent,490,188
5,16591194,Hosokawa Japanese Restaurant,Hamilton,"Shop 3, 53 Racecourse Road, Hamilton, Brisbane",Brisbane,-27.4374005220,153.0650934577,4007,"Japanese, Sushi",3,60,4.7,Excellent,600,189
6,16592896,Gerard's Bistro,Fortitude Valley,"Shop 14, 15 James Street, Fortitude Valley, Brisbane",Brisbane,-27.4565996683,153.0390626192,4006,Middle Eastern,4,200,4.7,Excellent,637,276
7,16589882,85 Miskin St,Toowong,"85 Miskin Street, Toowong, Brisbane",Brisbane,-27.4855121347,152.9835925251,4066,"French, Modern Australian",4,200,4.7,Excellent,308,138
8,16592889,Nonbei Sake Bar & BBQ,Fortitude Valley,"624 Ann Street, Fortitude Valley, Brisbane",Brisbane,-27.4591683461,153.0340515822,4006,"Japanese, BBQ",3,80,4.7,Excellent,218,72
9,16590137,Zum Kaiser,Woolloongabba,"416 Vulture Street, Woolloongabba, Brisbane",Brisbane,-27.4844767667,153.0368625373,4169,German,3,60,4.7,Excellent,296,83
10,16590773,Just Poppy's,Riverhills Plaza,"Riverhills Plaza, Shop 4, 20 Bogong Street, Riverhills, Brisbane",Brisbane,-27.5591731477,152.9115537554,4074,Burger,2,40,4.7,Excellent,368,137
11,16592335,The Scratch,Milton,"Shop 8, 1 Park Road, Milton, Brisbane",Brisbane,-27.4702608125,153.0044567585,4064,Bar Food,3,60,4.7,Excellent,174,42
12,16590399,Sono Japanese Restaurant,Portside Wharf,"39 Hercules Street, Hamilton, Brisbane",Brisbane,-27.4413863000,153.0699512735,4007,"Japanese, Sushi",4,150,4.6,Excellent,1082,312
13,16591972,Malt Dining,Brisbane CBD,"28 Market Street, Brisbane CBD, Brisbane",Brisbane,-27.4695775129,153.0296497420,4000,Modern Australian,4,140,4.6,Excellent,785,270
14,16594733,Naïm,Paddington,"14 Collingwood Street, Paddington, Brisbane",Brisbane,-27.4583719255,152.9945708066,4064,"Middle Eastern, Cafe Food, Salad",3,60,4.6,Excellent,729,258
15,16590549,Sushi Kotobuki,East Brisbane,"53 Lytton Road, East Brisbane, Brisbane",Brisbane,-27.4796290564,153.0441866443,4169,"Asian, Japanese, Sushi",2,40,4.6,Excellent,732,214
16,16589840,Beccofino,Teneriffe,"10 Vernon Terrace, Teneriffe, Brisbane",Brisbane,-27.4559799517,153.0497834086,4006,"Italian, Pizza",3,90,4.6,Excellent,788,239
17,16590241,Montrachet,Bowen Hills,"Shop 1, 30 King Street, Bowen Hills, Brisbane",Brisbane,-27.4525400595,153.0336703733,,French,4,200,4.6,Excellent,618,187
18,16592501,Public,400 George,"400 George, Level 1, 400 George Street, Brisbane CBD, Brisbane",Brisbane,-27.4689920791,153.0211672559,4000,"Tapas, Contemporary",4,155,4.6,Excellent,498,183
19,16591503,Ristorante Tartufo,Emporium - Fortitude Valley,"Emporium, 1000 Ann Street, Fortitude Valley, Brisbane",Brisbane,-27.4527141096,153.0394512042,4006,"Italian, Pizza",4,170,4.6,Excellent,472,205
20,16591304,Hakataya Ramen,Sunnybank Plaza,"Sunnybank Plaza, Shop 27B, 358 Mains Road, Sunnybank, Brisbane",Brisbane,-27.5710576835,153.0628709123,4109,"Japanese, Ramen",2,40,4.6,Excellent,431,133
21,16590071,Grappino Trattoria Italian Restaurant,Paddington,"226 Given Terrace, Paddington, Brisbane",Brisbane,-27.4620588552,153.0055551231,4064,Italian,4,100,4.6,Excellent,270,98
22,16589963,Continental Cafe,New Farm,"21 Barker Street, New Farm, Brisbane",Brisbane,-27.4652363643,153.0430386588,4005,European,4,125,4.6,Excellent,261,76
23,16589959,Cinco Bistro,Camp Hill,"589 Old Cleveland Road, Camp Hill, Brisbane",Brisbane,-27.4932412469,153.0767312273,4152,"Italian, Pizza, Modern Australian",4,100,4.6,Excellent,222,89
24,16593582,Rice Paper Vietnamese Cuisine,Warrigal Square Shopping Centre,"Warrigal Square Shopping Centre, 261 Warrigal Road, Eight Mile Plains, Brisbane",Brisbane,-27.5898644575,153.0870761722,4113,"Vietnamese, Salad",2,40,4.6,Excellent,174,76
25,16593627,Mamak Tandoori House,Camp Hill Marketplace,"Camp Hill Marketplace, Shop 6, 25 Samuel Street, Camp Hill, Brisbane",Brisbane,-27.5006174076,153.0766705424,4152,"Indian, Malaysian",2,43,4.6,Excellent,145,75
26,16592529,De Pascale,Chermside,"Corner Kittyhawk Drive & Way Street, Chermside, Brisbane",Brisbane,-27.3851311173,153.0347134173,,"Pizza, Italian",2,40,4.6,Excellent,142,66
27,16591325,Sushi Train,Indooroopilly Junction,"Indooroopilly Junction, Shop 2, 100 Coonan Street, Indooroopilly, Brisbane",Brisbane,-27.5011473587,152.9759743810,4068,"Sushi, Japanese",2,40,4.6,Excellent,198,53
28,16589792,Amphora,St Lucia,"36 Hawken Drive, St Lucia, Brisbane",Brisbane,-27.5018182695,152.9966890812,4067,Mediterranean,3,80,4.6,Excellent,92,36
29,16591388,Lady Marmalade Cafe,Greenslopes,"Shop A, 269 Logan Road, Stones Corner, Brisbane",Brisbane,-27.4988835993,153.0434202030,4120,"Cafe Food, Coffee and Tea",2,50,4.5,Excellent,621,242
30,16590496,The Verve Italian Steakhouse,Brisbane CBD,"Level 1, Hotel Orient, 560 Queens St Brisbane, Brisbane CBD, Brisbane",Brisbane,-27.4626540000,153.0310310000,4001,"Italian, Pizza",3,90,4.5,Excellent,997,256
31,16589856,Bishamon Japanese,Spring Hill,"500 Boundary Street, Spring Hill, Brisbane",Brisbane,-27.4611232263,153.0226696283,4000,"Asian, Japanese, Sushi",3,60,4.5,Excellent,460,118
32,16590589,Siam Samrarn,South Brisbane,"The Markets, Shop 1, 69-79 Boundary Street, South Brisbane, Brisbane",Brisbane,-27.4765477434,153.0123149604,4101,Thai,3,60,4.5,Excellent,451,145
33,16590314,Quan Thanh,West End,"Shop 1, 75 Hardgrave Road, West End, Brisbane",Brisbane,-27.4827284270,153.0068854988,4101,"Vietnamese, Chinese, Malaysian, Salad",2,50,4.5,Excellent,612,204
34,16589993,E'cco Bistro,Newstead,"63 Skyring Terrace, Newstead, Brisbane",Brisbane,-27.4503273685,153.0439962074,4006,Modern Australian,4,165,4.5,Excellent,628,196
35,16593080,Tippler's Tap,eat South Bank,"eat South Bank, Shop 5, 182 Grey Street, South Bank, Brisbane",Brisbane,-27.4802539941,153.0232060701,4101,American,2,50,4.5,Excellent,444,141
36,16589924,Caravanserai,West End,"1 Dornoch Terrace, West End, Brisbane",Brisbane,-27.4868029850,153.0063446984,4101,"Middle Eastern, Turkish, Vegetarian",2,50,4.5,Excellent,529,169
37,16592593,The Bun Mobile,Brisbane CBD,"Location Varies, Brisbane, QLD",Brisbane,-27.4685625211,153.0245287344,4000,"Asian, Burger",2,30,4.5,Excellent,730,183
38,16590177,Lefkas Taverna,West End,"170 Hardgrave Road, West End, Brisbane",Brisbane,-27.4864746227,153.0061807483,4101,"Greek, Mediterranean, Salad",3,80,4.5,Excellent,576,193
39,16594784,BlackBird Bar & Grill,Riverside Centre,"Riverside Centre, 123 Eagle Street, Brisbane CBD, Brisbane",Brisbane,-27.4672161254,153.0310652778,4000,"Modern Australian, Grill",4,120,4.5,Excellent,268,119
40,16590106,Il Centro,Eagle Street Pier,"Eagle Street Pier, 45 Eagle Street, Brisbane CBD, Brisbane",Brisbane,-27.4696727051,153.0306056142,4000,Italian,4,120,4.5,Excellent,442,171
41,16594637,John Mills Himself,Brisbane CBD,"40 Charlotte Street, Brisbane CBD, Brisbane",Brisbane,-27.4720120273,153.0262658000,4000,"Cafe Food, Beverages",1,20,4.5,Excellent,190,62
42,16590231,Mizu,Teneriffe,"2 Macquarie Street, Teneriffe, Brisbane",Brisbane,-27.4624667215,153.0504586548,4005,Japanese,3,80,4.5,Excellent,363,116
43,16590383,Sing's Asian Kitchen,Rosalie Village,"Rosalie Village, 5 Nash Street, Paddington, Brisbane",Brisbane,-27.4661454821,152.9975718632,4064,Asian,2,55,4.5,Excellent,558,133
44,16590502,Vine,New Farm,"158 Moray Street, New Farm, Brisbane",Brisbane,-27.4707932894,153.0437762663,4005,Italian,4,100,4.5,Excellent,325,128
45,16590203,Lychee Lounge,West End,"Shop 2/94, Boundary Street, West End, Brisbane",Brisbane,-27.4784252754,153.0125962570,4101,"Bar Food, Tapas",3,70,4.5,Excellent,297,75
46,16595284,Kinn Thai,Westfield Garden City,"Westfield Garden City, Level 2, Logan Road and Kessels Road, Upper Mount Gravatt, Brisbane",Brisbane,-27.5621041282,153.0801061168,4122,"Thai, Salad",3,60,4.5,Excellent,337,162
47,16593841,Black Hide Steakhouse,Petrie Terrace,"36 Caxton Street, Petrie Terrace, Brisbane",Brisbane,-27.4647826950,153.0128758773,4065,Steak,4,100,4.5,Excellent,160,72
48,16591608,Kingsfood Sunnybank,Market Square Sunnybank,"Market Square, 341 Mains Road, Sunnybank, Brisbane",Brisbane,-27.5726750412,153.0653167516,4109,Chinese,3,60,4.5,Excellent,342,160
49,16590857,Tan Thanh Vietnamese,Inala Civic Centre,"Shop 16, 57 Corsair Avenue, Inala, Brisbane",Brisbane,-27.5992745089,152.9741843417,4077,Vietnamese,2,50,4.5,Excellent,313,137
50,16590135,Kadoya,Brisbane CBD,"73 Mary Street, Brisbane CBD, Brisbane",Brisbane,-27.4721571921,153.0277892947,4000,Japanese,2,35,4.5,Excellent,272,72
51,16594407,DA'Burger,New Farm,"876 Brunswick Street, New Farm, Brisbane",Brisbane,-27.4669457138,153.0467655882,4005,Burger,2,45,4.5,Excellent,358,171
52,16590249,My Thai Restaurant,Auchenflower,"113 Haig Road, Auchenflower, Brisbane",Brisbane,-27.4705514441,152.9958173633,4066,Thai,3,70,4.5,Excellent,371,90
53,16591575,Just Soy Cafe,Sunnybank Hills,"Pacific Centre, Shop 1, 8 Lear Street, Sunnybank Hills, Brisbane",Brisbane,-27.6101802317,153.0542402342,4109,"Desserts, Asian",1,20,4.5,Excellent,237,76
54,16591265,Sakura Japanese Runcorn,Runcorn,"Shop 8, 957 Beenleigh Road, Runcorn, Brisbane",Brisbane,-27.5965750962,153.0732748658,4113,"Japanese, Sushi",2,40,4.5,Excellent,200,60
55,16589781,A Night in India,Toowong,"Shop 3, 58 High Street, Toowong, Brisbane",Brisbane,-27.4868815063,152.9912126809,4066,Indian,3,60,4.5,Excellent,317,104
56,16590651,Fresh Sushi Co,James Street Market,"James Street Market, 22 James Street, Fortitude Valley, Brisbane",Brisbane,-27.4562426548,153.0404251814,4006,Seafood,2,40,4.5,Excellent,165,64
57,16591929,DannyBoys,Kelvin Grove,"88 Musk Avenue, Kelvin Grove, Brisbane",Brisbane,-27.4528357957,153.0147675052,4059,"American, Sandwich",2,30,4.5,Excellent,220,113
58,16590257,No No's,Red Hill,"158 Musgrave Road, Red Hill, Brisbane",Brisbane,-27.4552766301,153.0066166073,4059,"Middle Eastern, Lebanese",2,40,4.5,Excellent,172,65
59,16593777,Sushi Edo,Newmarket Village,"Reading Newmarket Shopping Centre, 400 Newmarket Road, Newmarket, Brisbane",Brisbane,-27.4381759672,153.0080981925,4051,"Sushi, Japanese",2,30,4.5,Excellent,232,88
60,16590875,Curryville Indian Restaurant,Morningside,"629 Wynnum Road, Morningside, Brisbane",Brisbane,-27.4678206073,153.0727535114,4170,Indian,3,60,4.5,Excellent,233,115
61,16591457,Siam Sensations,Nundah,"Shop 2, 1208 Sandgate Road, Nundah, Brisbane",Brisbane,-27.4026373668,153.0605132505,4012,Thai,3,60,4.5,Excellent,196,76
62,16590839,Carraway Pier,Kelvin Grove,"The Village Centre, Shop 17, 8 Carraway Street, Kelvin Grove, Brisbane",Brisbane,-27.4546393526,153.0147537589,4059,"Fish and Chips, Burger",2,30,4.5,Excellent,144,38
63,16591120,Indian Mehfil,Ipswich,"116A Brisbane Street, Ipswich, Brisbane",Brisbane,-27.6146142893,152.7594771981,4305,Indian,2,50,4.5,Excellent,151,76
64,16592679,Pawpaw,East Brisbane,"898 Stanley Street, East Brisbane, Brisbane",Brisbane,-27.4872164109,153.0410243198,4102,"Healthy Food, Asian",2,50,4.4,Very Good,801,295
65,16592585,The Burrow,West End,"52 Russell Street, West End, Brisbane",Brisbane,-27.4795761105,153.0125429481,4101,Pizza,3,60,4.4,Very Good,1012,305
66,16590994,Little Greek Taverna,West End,"Shop 5, 1 Browning Street, West End, Brisbane",Brisbane,-27.4774948421,153.0127330497,4101,"Mediterranean, Greek, Salad",3,60,4.4,Very Good,1150,397
67,16590758,Madtongsan II,Brisbane CBD,"Shop 1, 85 Elizabeth Street, Brisbane CBD, Brisbane",Brisbane,-27.4714962146,153.0253340676,,Korean,3,60,4.4,Very Good,672,189
68,17841502,Sushi Edo,Brisbane CBD,"153 Elizabeth Street, Brisbane CBD, Brisbane",Brisbane,-27.4703557066,153.0266000703,4000,"Sushi, Japanese",2,30,4.4,Very Good,282,94
69,16589787,Alchemy Restaurant and Bar,Brisbane CBD,"175 Eagle Street, Brisbane CBD, Brisbane",Brisbane,-27.4664548661,153.0310709775,4000,"Contemporary, French",4,160,4.4,Very Good,449,171
70,16591109,Soul Bistro,Milton,"Shop 5, 16 Baroona Road, Milton, Brisbane",Brisbane,-27.4691827619,153.0032581464,4064,"Tapas, Fusion, Cafe Food",3,60,4.4,Very Good,272,114
71,17841425,Roti Place,Brisbane CBD,"42 Charlotte Street, Brisbane CBD, Brisbane",Brisbane,-27.4718412798,153.0259395763,4000,Malaysian,3,60,4.4,Very Good,230,111
72,16592247,Deer Duck Bistro,Auchenflower,"396 Milton Road, Auchenflower, Brisbane",Brisbane,-27.4737525055,152.9955722764,4066,"European, Modern Australian",4,150,4.4,Very Good,296,176
73,16594374,Billy Kart Kitchen,Annerley,"1 Eric Crescent, Annerley, Brisbane",Brisbane,-27.5238620760,153.0293084309,4105,Modern Australian,2,50,4.4,Very Good,438,210
74,16590591,Pepe's Mexican Newmarket,Newmarket,"184 Enoggera Road, Newmarket, Brisbane",Brisbane,-27.4367589753,153.0063832551,4051,"Mexican, Tex-Mex",3,70,4.4,Very Good,460,204
75,16590279,Pane E Vino,Brisbane CBD,"124 Albert Street, Brisbane CBD, Brisbane",Brisbane,-27.4713302259,153.0265970528,4000,Italian,3,80,4.4,Very Good,435,148
76,16589777,1889 Enoteca,Woolloongabba,"12 Logan Road, Woolloongabba, Brisbane",Brisbane,-27.4868931061,153.0365929753,4102,"Italian, Vegetarian",4,140,4.4,Very Good,383,174
77,16591627,Guzman y Gomez,Emporium - Fortitude Valley,"Emporium, Shop 31, 1000 Ann Street, Fortitude Valley, Brisbane",Brisbane,-27.4529503412,153.0390713364,4006,Mexican,2,40,4.4,Very Good,866,198
78,16590088,Himalayan Cafe,New Farm,"640 Brunswick Street, New Farm, Brisbane",Brisbane,-27.4633273709,153.0415111408,4005,"Indian, Tibetan, Vegetarian, Salad",3,60,4.4,Very Good,493,128
79,16595113,Ben's Burgers,Fortitude Valley,"Winn Lane, 5 Winn Street, Fortitude Valley, Brisbane",Brisbane,-27.4578548590,153.0361795798,4006,"American, Burger",2,40,4.4,Very Good,408,173
80,16591379,Cafe Les Amoureux,Market Square Sunnybank,"Market Square, Corner Mains Road & McCullough Street, Sunnybank, Brisbane",Brisbane,-27.5725068276,153.0653801188,4109,French,4,100,4.4,Very Good,317,129
81,16590558,Hanwoori Korean Buffet,Brisbane CBD,"Level 1, 70 Mary Street, Brisbane CBD, Brisbane",Brisbane,-27.4722047871,153.0271737278,4000,Korean,3,80,4.4,Very Good,200,65
82,16591222,AJ Vietnamese Noodle House,Brisbane CBD,"70 Charlotte Street, Brisbane CBD, Brisbane",Brisbane,-27.4713564033,153.0268424749,4000,Vietnamese,2,30,4.4,Very Good,272,91
83,16590210,Malaya Corner,Market Square Sunnybank,"Market Square, Shop 38, 341 Mains Road, Sunnybank, Brisbane",Brisbane,-27.5725742914,153.0660895631,4109,"Chinese, Malaysian",2,50,4.4,Very Good,398,136
84,16591348,Canvas,Woolloongabba,"16B Logan Road, Woolloongabba, Brisbane",Brisbane,-27.4871572227,153.0367361382,4102,"Tapas, Spanish",3,80,4.4,Very Good,257,105
85,16591195,Archive Beer Boutique and Bistro,West End,"100 Boundary Street, West End, Brisbane",Brisbane,-27.4794018054,153.0125952512,4101,"Modern Australian, Bar Food",3,60,4.4,Very Good,343,99
86,16592878,Aquitaine Brasserie,eat South Bank,"eat South Bank, River Quay, Shop 2, Sidon Street, South Bank, Brisbane",Brisbane,-27.4809500176,153.0256653205,4101,French,4,130,4.4,Very Good,237,106
87,16590310,Punjabi Palace,South Brisbane,"135 Melbourne Street, South Brisbane, Brisbane",Brisbane,-27.4755774348,153.0151383206,4101,Indian,3,60,4.4,Very Good,419,164
88,16590464,Thai Wi-Rat,Brunswick Street Mall,"Brunswick Street Mall, Shop 270-292, 247 Brunswick Street, Fortitude Valley, Brisbane",Brisbane,-27.4574294226,153.0341139436,4006,"Laotian, Thai",3,80,4.4,Very Good,353,130
89,16592287,Mitoki Japanese Modern Tapas,Kangaroo Point,"35 Rotherham Street, Kangaroo Point, Brisbane",Brisbane,-27.4694266926,153.0361886323,4169,"Japanese, Tapas",3,70,4.4,Very Good,192,53
90,16593960,Bare Bones Society,Jindalee Home Shopping Centre,"Jindalee Home Shopping Centre, Shop 22, 34 Goggs Road, Jindalee, Brisbane",Brisbane,-27.5348288085,152.9479704425,4074,"Modern Australian, Cafe Food",2,40,4.4,Very Good,274,126
91,16591054,Pho Hien Vuong Pasteur,Market Square Sunnybank,"Market Square, Shop 319, 341 Mains Road, Sunnybank, Brisbane",Brisbane,-27.5730307854,153.0655718967,4109,"Vietnamese, Pho",2,50,4.4,Very Good,264,104
92,16592495,The Green Edge,Windsor,"Shop 2B, 229 Lutwyche Road, Windsor, Brisbane",Brisbane,-27.4357270177,153.0325555801,4030,"Vegan, Cafe Food",2,40,4.4,Very Good,156,89
93,16591658,Malaysia Makanan Restaurant,Calamvale,"Calamvale Village, Shop 17, Corner of Kameruka Street and Beaudesert Road, Calamvale, Brisbane",Brisbane,-27.6241249974,153.0488503352,4116,"Chinese, Malaysian",3,60,4.4,Very Good,235,102
94,16590068,Govinda's Pure Vegetarian,Brisbane CBD,"358 George Street, Brisbane CBD, Brisbane",Brisbane,-27.4695302142,153.0218880996,4000,"Indian, Healthy Food, Vegetarian, Vegan",1,20,4.4,Very Good,246,80
95,16595617,Genkotsu Ramen,Runcorn Plaza,"Runcorn Plaza, Shop 25, 258 Warrigal Road, Runcorn, Brisbane",Brisbane,-27.5882473532,153.0839346349,4113,"Japanese, Ramen",2,40,4.4,Very Good,198,83
96,16591593,Boucher,Graceville,"365 Honour Avenue, Graceville, Brisbane",Brisbane,-27.5215595356,152.9758935794,4075,French,4,150,4.4,Very Good,182,86
97,16591851,Pho Sai Gon,Sunnybank Hills,"Pacific Centre, Shop 9, 223 Calam Road, Sunnybank Hills, Brisbane",Brisbane,-27.6105403106,153.0540223047,4109,"Vietnamese, Pho",2,50,4.4,Very Good,187,66
98,16590757,Loving Hut,Mount Gravatt,"Shop 2, 1420 Logan Road, Mount Gravatt, Brisbane",Brisbane,-27.5375544155,153.0790764839,4122,Asian,2,50,4.4,Very Good,169,79
99,16594340,Newstead Brewing Co.,Newstead,"85 Doggett Street, Newstead, Brisbane",Brisbane,-27.4524228359,153.0446385965,4006,"Pizza, Bar Food",3,80,4.4,Very Good,183,65
0,16596036,Ha-Lu,"Oxford Street, Leederville","4/401 Oxford Street, Mount Hawthorn, Perth",Perth,-31.9233773227,115.8411462978,6016,"Japanese, Tapas",3,60,4.9,Excellent,1066,241
1,16598837,Run Amuk,"Orient Street, South Fremantle","386A South Terrace, South Fremantle, Fremantle, Perth",Perth,-32.0722768677,115.7530652359,6162,Fast Food,2,50,4.9,Excellent,1038,340
2,16597513,Pacific Rim Mix Plate,Applecross,"Shop B, 755 Canning Highway, Applecross, Melville, Perth",Perth,-32.0219001116,115.8322872967,6153,"Hawaiian, Japanese",2,40,4.9,Excellent,732,211
3,16598976,Marumo,Nedlands,"22/145 Stirling Hwy, Nedlands, Nedlands & Dalkeith, Perth",Perth,-31.9802157847,115.7966588438,6907,"Japanese, Seafood, Modern Australian",1,0,4.9,Excellent,437,140
4,16598168,Nobu Perth,Burswood,"Crown Metropol Perth, Great Eastern Highway, Burswood",Perth,-31.9605255258,115.8940253779,6100,"Japanese, Sushi",4,410,4.8,Excellent,1822,659
5,16596002,Galileo Buona Cucina,Shenton Park,"199 Onslow Road, Shenton Park, Perth",Perth,-31.9609760000,115.8122330000,,Italian,3,90,4.8,Excellent,725,205
6,16595880,Chez Pierre,Nedlands,"131 Stirling Highway, Nedlands, Nedlands & Dalkeith, Perth",Perth,-31.9799580000,115.7980270000,6009,French,4,150,4.8,Excellent,489,236
7,16596244,Nine Fine Food,Perth CBD,"227 Bulwer Street, Perth CBD, Perth",Perth,-31.9403095293,115.8616879955,6003,"Japanese, Modern Australian",4,150,4.7,Excellent,962,291
8,16596238,Nao Japanese,"Hay Street, Perth CBD","Equus, 580 Hay Street, Perth",Perth,-31.9546343231,115.8609222248,6000,"Japanese, Ramen",2,50,4.7,Excellent,1107,343
9,16597030,Prego Restaurant,Floreat,"440 Cambridge Street, Floreat, Perth",Perth,-31.9407465436,115.8015542105,6014,"Italian, Mediterranean",4,120,4.7,Excellent,915,408
10,16598265,Petite Mort,Shenton Park,"225 Onslow Road, Shenton Park, Perth",Perth,-31.9610180000,115.8114700000,6008,"European, French, Modern Australian",4,250,4.7,Excellent,554,269
11,16597994,Shou Japanese Kitchen,Greenwood,"Shop 24, 18 Calectasia Street, Greenwood, Perth",Perth,-31.8310550000,115.8018110000,6024,Japanese,2,50,4.7,Excellent,411,157
12,16597908,Solo Pizza,"Coode Street, South Perth","Shop 5, 135A Coode Street, South Perth, Perth",Perth,-31.9881289245,115.8621295542,6151,"Coffee and Tea, Italian, Pizza",2,50,4.7,Excellent,307,141
13,16596860,The Bonsai Restaurant & Cafe Lounge,Northbridge,"30 Roe Street, Northbridge, Perth",Perth,-31.9494226690,115.8576690406,6003,Japanese,4,130,4.6,Excellent,1316,409
14,16596815,S & T Thai Gourmet Cafe,Perth CBD,"349 William Street, Perth CBD, Perth CBD, Perth",Perth,-31.9454374886,115.8615253866,6003,Thai,2,55,4.6,Excellent,981,298
15,16596306,The Prophet Lebanese Cafe,East Victoria Park,"907 Albany Highway, East Victoria Park, Perth",Perth,-31.9873750642,115.9047770128,6101,"Middle Eastern, Cafe Food",3,65,4.6,Excellent,1094,319
16,16598048,P'tite Ardoise Bistro,Perth CBD,"283 Beaufort Street, Perth, Perth CBD, Perth",Perth,-31.9443950771,115.8657894284,6003,French,4,120,4.6,Excellent,951,357
17,16597786,Koko Black Claremont,Claremont,"Claremont Quarter, 23 Saint Quentin Avenue, Claremont, Perth",Perth,-31.9826490000,115.7794490000,,"Desserts, Cafe Food",2,35,4.6,Excellent,1084,281
18,16595904,Clarkes of North Beach,North Beach,"97 Flora Terrace, North Beach, Perth",Perth,-31.8550443517,115.7541615888,6020,Modern Australian,4,120,4.6,Excellent,400,171
19,16597649,Sparrow Indonesian Restaurant,Perth CBD,"301 Lord Street, Perth CBD, Perth",Perth,-31.9433460000,115.8733990000,6003,"Indonesian, Malaysian",2,40,4.6,Excellent,394,151
20,16597311,Bollywood Spices Indian Cuisine,North Perth,"Shop 9, 299 Charles Street, North Perth, Perth",Perth,-31.9291646770,115.8522362262,6006,Indian,2,50,4.6,Excellent,378,175
21,16600545,Bossman Coffee,Mount Lawley,"3/669 Beaufort Street, Mount Lawley, Perth",Perth,-31.9337708524,115.8722994849,6050,Cafe Food,1,15,4.6,Excellent,297,105
22,16597802,Tak'E Sushi,Dianella,"Shop 50, Dianella Plaza, Corner Alexander Drive & Grand Promande, Dianella, Stirling, Perth",Perth,-31.8960180535,115.8710106835,6059,"Japanese, Sushi",2,30,4.6,Excellent,230,69
23,16595894,Ciao Italia,South Perth,"273 Mill Point Road, South Perth, Perth",Perth,-31.9777042880,115.8687559515,6151,"Italian, Seafood",3,65,4.5,Excellent,1794,504
24,16600511,Palsaik Namoo,Perth CBD,"68 Barrack Street, Perth CBD, Perth",Perth,-31.9543131550,115.8605121821,6000,"Korean, BBQ",3,70,4.5,Excellent,658,215
25,16596362,Sayers,"Carr Place, Leederville","Shop 1, 224 Carr Place, Leederville, Perth",Perth,-31.9372790000,115.8425980000,6007,"Modern Australian, Cafe Food",2,50,4.5,Excellent,2126,548
26,16595766,Balthazar,Perth CBD,"6 The Esplanade, Perth CBD, Perth",Perth,-31.9565943065,115.8581692725,6000,"European, Modern Australian",4,150,4.5,Excellent,1039,284
27,16597137,The Raw Kitchen,Fremantle,"181A High Street, Fremantle, Perth",Perth,-32.0534455245,115.7499803603,6160,"Healthy Food, Pizza, Cafe Food",3,60,4.5,Excellent,1036,386
28,16599597,Is Donburi,Northbridge,"Shop 10, 189 William Street, Northbridge, Perth",Perth,-31.9493708924,115.8590265736,6003,Japanese,2,50,4.5,Excellent,881,292
29,16598045,Bivouac Canteen & Bar,Northbridge,"198 William Street, Northbridge, Perth",Perth,-31.9492955032,115.8592924476,6003,"Mediterranean, Middle Eastern, Tapas",4,105,4.5,Excellent,1047,369
30,16596548,Hawker's Cuisine,Northbridge,"17/68 Roe Street, Northbridge",Perth,-31.9478608221,115.8595204353,6003,"Chinese, Malaysian",2,50,4.5,Excellent,968,252
31,16596581,Alfred's Kitchen,Guildford,"Corner Meadow & James Street, Guildford, Perth",Perth,-31.8993700000,115.9681020000,6055,"Burger, Fast Food",2,35,4.5,Excellent,1220,338
32,16597131,Cafe Elixir,Wanneroo,"3 Rocca Way, Wanneroo, Perth",Perth,-31.7510410000,115.8049010000,06065,Cafe Food,3,60,4.5,Excellent,996,413
33,16596234,Must Winebar,Highgate,"519 Beaufort Street, Highgate, Perth",Perth,-31.9380610000,115.8697320000,6003,Modern Australian,4,170,4.5,Excellent,1099,316
34,16599908,Red Opium,"Hay Street, Perth CBD","21/326 Hay Street, Perth CBD, Perth",Perth,-31.9571239000,115.8686983000,6000,"Tapas, Thai",3,60,4.5,Excellent,498,270
35,16596197,Meeka Restaurant,Subiaco,"361 Rokeby Road, Subiaco, Perth",Perth,-31.9550897599,115.8237488195,6008,"Middle Eastern, Modern Australian",4,135,4.5,Excellent,472,179
36,16599078,Mama Tran,Perth CBD,"Shop 10, 36-40 Milligan Street, Perth CBD, Perth",Perth,-31.9513287122,115.8519431949,6000,"Vietnamese, Asian",2,40,4.5,Excellent,567,138
37,16597360,Frisk. Small Bar,Northbridge,"103 Francis Street, Northbridge, Perth",Perth,-31.9467086229,115.8567014337,6003,"Bar Food, Tapas",3,60,4.5,Excellent,637,164
38,16597105,Grill'd - Mount Lawley,Mount Lawley,"669 Beaufort Street, Mount Lawley, Perth",Perth,-31.9338332000,115.8725368000,6050,"Burger, Healthy Food",2,40,4.5,Excellent,1137,246
39,16596754,Yuki Japanese Restaurant,Willetton,"113 Collins Road, Willeton, Willetton, Perth",Perth,-32.0562723486,115.9024176747,6155,Japanese,3,60,4.5,Excellent,538,176
40,16596772,Kanta,Langford,"Shop 3, 70 Langford Avenue, Langford, Perth",Perth,-32.0434150000,115.9428480000,,Japanese,2,40,4.5,Excellent,387,140
41,16595961,Embers,Gooseberry Hill,"169 Railway Road, Gooseberry Hill, Kalamunda, Perth",Perth,-31.9581557205,116.0516826063,6076,"Pizza, Italian",3,80,4.5,Excellent,430,180
42,16597161,Mother India Restaurant,"Forrest Street, Fremantle","23 Forrest Street, Fremantle, Perth",Perth,-32.0486930000,115.7636820000,6160,Indian,4,110,4.5,Excellent,262,121
43,16600553,Bread In Common,Fremantle,"43 Pakenham Street, Fremantle, Perth",Perth,-32.0564810000,115.7453410000,6160,"Mediterranean, Bakery",4,110,4.4,Very Good,1737,676
44,16600681,Pinchos,Leederville,"749 Newcastle Street, Leederville, Perth",Perth,-31.9376580000,115.8414280000,6007,"Spanish, Tapas",3,75,4.4,Very Good,829,358
45,16595944,Duende,Leederville,"662 Newcastle Street, Leederville, Perth",Perth,-31.9376470000,115.8426130000,6007,"Tapas, Spanish",3,85,4.4,Very Good,2043,634
46,16596635,Andaluz Bar & Tapas,Perth CBD,"21 Howard Street, Perth CBD, Perth",Perth,-31.9555161786,115.8572375402,6000,"Spanish, Tapas",3,95,4.4,Very Good,1267,275
47,16596980,Clarences,Mount Lawley,"566, Beaufort Street, Mount Lawley, Perth",Perth,-31.9371760000,115.8710190000,6050,"Tapas, Modern Australian",3,80,4.4,Very Good,1222,316
48,16597128,Restaurant Jun,Perth CBD,"568 Hay Street, Perth CBD, Perth",Perth,-31.9549105439,115.8613212034,6000,"Japanese, Sushi",3,65,4.4,Very Good,666,163
49,16596534,West End Deli,West Perth,"95 Carr Street, West Perth, Perth",Perth,-31.9391939384,115.8501031995,6005,Cafe Food,3,60,4.4,Very Good,1025,354
50,16596981,V Burger Bar,East Victoria Park,"Shop 12, 910 Albany Highway, East Victoria Park, Perth",Perth,-31.9871464309,115.9049148113,6101,Burger,2,50,4.4,Very Good,992,329
51,16597986,Modo Mio,Burswood,"Crown Perth, Great Eastern Highway, Burswood",Perth,-31.9614758771,115.8946278691,6100,Italian,4,200,4.4,Very Good,1024,419
52,16597153,Tak Chee House,Perth CBD,"Shop 1, 364 William Street, Perth CBD, Perth",Perth,-31.9453882702,115.8617057651,6000,"Asian, Malaysian",2,45,4.4,Very Good,664,231
53,16598736,Lapa Brazilian Restaurant,Subiaco,"375 Hay Street, Subiaco, Perth",Perth,-31.9476056325,115.8264803141,6008,"BBQ, Brazilian, Latin American",4,120,4.4,Very Good,848,286
54,16596615,Good Fortune Roast Duck House,Perth CBD,"354 William Street, Perth CBD, Perth",Perth,-31.9454767495,115.8616698906,6000,Chinese,3,70,4.4,Very Good,823,275
55,17841646,The Modern Eatery,Fremantle,"124 High Street, Fremantle, Perth",Perth,-32.0535231014,115.7489031181,6160,"Japanese, Sushi, Modern Australian",2,50,4.4,Very Good,298,139
56,16598458,Veggie Mama,Mount Lawley,"5/567 Beaufort Street, Mount Lawley, Perth",Perth,-31.9364687781,115.8706133813,6050,"Vegetarian, Healthy Food, Cafe Food",2,40,4.4,Very Good,525,170
57,16597136,Himalayan Nepalese Restaurant & Cafe,Victoria Park,"419 Albany Highway, Victoria Park, Perth",Perth,-31.9750024539,115.8975880221,6100,"Tibetan, Nepalese",3,70,4.4,Very Good,782,247
58,16596189,Matilda Bay Restaurant & Bar,Crawley,"3 Hackett Drive, Crawley",Perth,-31.9861700000,115.8215100000,6009,"Seafood, Modern Australian",4,139,4.4,Very Good,633,243
59,16596785,Took Bae Kee I Restaurant,Perth CBD,"Shop 6, 542 Hay Street, Perth CBD",Perth,-31.9550963027,115.8623042330,6000,"Korean, Asian",2,40,4.4,Very Good,366,95
60,16596313,Red Cabbage Food + Wine,South Perth,"49/15 Labouchere Road, South Perth, Perth",Perth,-31.9730548089,115.8504381403,6151,"European, Modern Australian",4,200,4.4,Very Good,621,267
61,16600685,Noodle Forum,Perth CBD,"Equus Arcade, Shop 203, 580 Hay Street, Perth CBD, Perth",Perth,-31.9539854428,115.8613537252,6000,"Asian, Malaysian",2,35,4.4,Very Good,412,154
62,16599818,Silver Sushi,Willetton,"1/41 Burrendah Boulevard, Willeton, Perth, Willetton, Perth",Perth,-32.0563860108,115.8806421608,6155,Japanese,2,45,4.4,Very Good,444,162
63,16596062,Hong Kong BBQ House,Northbridge,"76 Francis Street, Northbridge, Perth",Perth,-31.9472400588,115.8582457155,6003,"BBQ, Chinese, Seafood",3,85,4.4,Very Good,567,211
64,16596808,Pizzaca,Doubleview,"161 Gildercliffe Street, Scarborough, Doubleview, Perth",Perth,-31.8937348295,115.7753493637,6019,"Sandwich, Coffee and Tea, Pizza",3,60,4.4,Very Good,566,179
65,16595749,Annalakshmi on the Swan,Perth CBD,"Upstairs, Barrack Street Jetty, Jetty 4, Riverside Drive, Perth CBD, Perth",Perth,-31.9595646399,115.8574702218,6000,Indian,3,60,4.4,Very Good,555,151
66,16597037,Dosukoi Ramen in Fremantle,"Henderson Street, Fremantle","Fremantle Markets, Stall 7, South Terrace & Henderson Street, Fremantle, Perth",Perth,-32.0547290000,115.7498320000,6160,"Japanese, Ramen",2,35,4.4,Very Good,342,120
67,16596685,Ohnamiya Japanese,"Kearns Crescent, Ardross","34 Kearns Crescent, Applecross, Ardross, Perth",Perth,-32.0198734000,115.8353793000,6153,Japanese,2,45,4.4,Very Good,528,146
68,16596075,ilpasto Italian Trattoria,Inglewood,"4/885 Beaufort Street, Inglewood, Perth",Perth,-31.9216060000,115.8850530000,6052,"Italian, Mediterranean",4,100,4.4,Very Good,366,151
69,16600788,Habitue,"Harvest Road, North Fremantle","1 Harvest Road, North Fremantle, Fremantle, Perth",Perth,-32.0354499000,115.7538599000,06159,"Modern Australian, European",4,120,4.4,Very Good,252,130
70,16595997,Friends Restaurant,Perth CBD,"200 St Georges Terrace, Perth CBD, Perth",Perth,-31.9535277248,115.8532879874,6004,"Modern Australian, Australian",4,250,4.4,Very Good,345,170
71,16601204,Juniper & Bay,Como,"3 Preston Street, Como, Perth",Perth,-31.9939551367,115.8569243923,6152,"European, German, Modern Australian",3,80,4.4,Very Good,165,99
72,16596286,Phi Yen,Perth CBD,"205 Brisbane Street, Perth CBD, Perth",Perth,-31.9418774793,115.8607287705,6003,Vietnamese,3,60,4.4,Very Good,426,133
73,16596155,Limones Restaurant,Bicton,"1, Point Walter Road, Bicton WA 6157, Perth",Perth,-32.0357170000,115.7842230000,6158,Italian,4,140,4.4,Very Good,244,118
74,16596765,Goreng²,Mount Lawley,"75 Walcott Street, Mount Lawley, Perth",Perth,-31.9341987928,115.8719635382,6050,"Asian, Malaysian",2,50,4.4,Very Good,335,121
75,16595935,Delisio,Subiaco,"4/94 Rokeby Road, Subiaco, Perth",Perth,-31.9477180000,115.8241730000,6008,Italian,3,65,4.4,Very Good,224,63
76,16597401,Charcoal Chicken Express Dianella,"Grand Promenade, Dianella","Cnr Alexander Drive & Grand Promenade, Centro Dianella",Perth,-31.8959246875,115.8708356693,6059,Portuguese,2,35,4.4,Very Good,245,96
77,16596307,Punjab Indian Restaurant,Innaloo,"371 Scarborough Beach Road, Innaloo, Stirling, Perth",Perth,-31.9023530000,115.7962420000,6018,"Indian, Pakistani",3,65,4.4,Very Good,330,127
78,16597084,Ararat Kebabs,Crawley,"Shop 6, 88 Broadway, Crawley, Perth",Perth,-31.9839844650,115.8151845261,6009,Turkish,2,30,4.4,Very Good,253,69
79,16596550,Musashi,Joondalup,"Unit 7, 115 Grand Boulevard, Joondalup, Perth",Perth,-31.7418805271,115.7705673203,6027,Japanese,2,35,4.4,Very Good,170,65
80,16599574,Lalla Rookh Bar & Eating House,Perth CBD,"Allendale Square, 77 St Georges Terrace, Perth CBD, Perth",Perth,-31.9555292641,115.8583248407,6000,"Italian, Pizza",3,95,4.3,Very Good,657,284
81,16600792,Brika,Perth CBD,"177 Stirling Street, Perth CBD, Perth",Perth,-31.9469729187,115.8655399829,6000,"Greek, Tapas, Mediterranean",3,85,4.3,Very Good,808,355
82,16600889,Little Creatures Fremantle Brewery,Fremantle,"40 Mews Road, Fremantle, Perth",Perth,-32.0591692695,115.7449022681,6160,"Bar Food, Modern Australian",3,60,4.3,Very Good,2724,757
83,16599599,Mr. Munchies Sushi,Mount Lawley,"4/669 Beaufort Street, Mount Lawley, Perth",Perth,-31.9338277595,115.8723115548,6050,"Japanese, Sushi, Healthy Food",3,70,4.3,Very Good,1199,340
84,16602022,James Parker Sushi X Sake,Northbridge,"Shop 2, 182 James Street, Northbridge, Perth",Perth,-31.9472062040,115.8557147160,6003,"Japanese, Sushi",3,80,4.3,Very Good,339,155
85,16596479,Voyage Kitchen,Sorrento,"128 West Coast Drive, Sorrento, Perth",Perth,-31.8375020000,115.7500380000,6020,"Modern Australian, Cafe Food",3,80,4.3,Very Good,1105,403
86,16596072,Il Lido Italian Canteen,Cottesloe,"88 Marine Parade, Cottesloe, Perth",Perth,-31.9957814923,115.7521884888,6011,Italian,4,105,4.3,Very Good,1196,414
87,16598876,Aisuru Sushi,Northbridge,"208 William Street, Northbridge, Perth",Perth,-31.9490642147,115.8596350998,6003,"Japanese, Sushi",3,80,4.3,Very Good,1319,368
88,16599605,The Apple Daily Bar & Eating House,Perth CBD,"Brookfield Place, 125 St Georges Terrace, Perth CBD, Perth",Perth,-31.9543090000,115.8550633000,6000,"Asian, Fusion",4,115,4.3,Very Good,582,233
89,16597253,Blackbird,"Eastbrook Terrace, East Perth","Suite 4, 10 Eastbrook Terrace, East Perth, Perth",Perth,-31.9527343226,115.8766171709,6004,"European, Tapas, Modern Australian",3,60,4.3,Very Good,592,269
90,16596049,Hanami Japanese Restaurant,Mount Lawley,"685C Beaufort Street, Mount Lawley, Perth",Perth,-31.9328722850,115.8729596436,6050,"Japanese, Sushi",3,75,4.3,Very Good,777,223
91,16599698,Cecchi's,Inglewood,"965 Beaufort Street, Inglewood, Perth",Perth,-31.9182831000,115.8896991000,6052,European,4,123,4.3,Very Good,351,185
92,16596533,Jus Burgers,Leederville,"743 Newcastle Street, Leederville, Perth",Perth,-31.9373892187,115.8418906108,6007,Burger,2,45,4.3,Very Good,1065,283
93,16596629,Poppo Korean & Japanese,Perth CBD,"137 Barrack Street, Perth CBD, Perth",Perth,-31.9527485464,115.8610841632,6000,"Japanese, Korean",3,60,4.3,Very Good,479,153
94,16599777,Galangal,Mount Hawthorn,"180 Scarborough Beach Road, Mount Hawthorn, Perth",Perth,-31.9205865256,115.8372641355,6016,Thai,3,80,4.3,Very Good,452,246
95,16599959,Varsity Bar,Crawley,"88 Broadway, Crawley, Nedlands & Dalkeith, Perth",Perth,-31.9838890000,115.8150860000,6009,"American, Burger",2,50,4.3,Very Good,493,200
96,16599613,Red Basil Thai Cuisine,Victoria Park,"Shop 2, 335 Albany Highway, Victoria Park, Perth",Perth,-31.9733176069,115.8964386955,6100,Thai,2,40,4.3,Very Good,505,213
97,16601169,Koko Black,Perth CBD,"140 William, Perth CBD, Perth",Perth,-31.9520547051,115.8577984572,6000,"Desserts, Cafe Food",2,30,4.3,Very Good,333,147
98,16598924,The Cabin Small Bar,Mount Hawthorn,"174 Scarborough Beach Road, Mount Hawthorn, Perth",Perth,-31.9206884039,115.8378126472,6016,"Tapas, Modern Australian",3,80,4.3,Very Good,446,171
99,16596713,Canton Bay Chinese Restaurant,Northbridge,"20 Roe Street, Northbridge, Perth",Perth,-31.9495449983,115.8580016345,6003,"Chinese, Yum Cha",3,60,4.3,Very Good,426,162
0,16588873,Peel St,"Peel Street, City Centre","9 Peel Street, City Centre, Adelaide",Adelaide,-34.9233805556,138.5979472222,5000,"Asian, Middle Eastern, Modern Australian",4,110,4.9,Excellent,391,156
1,16588993,Orana,"Rundle Street, City Centre","285 Rundle Street, Adelaide",Adelaide,-34.9226260000,138.6101280000,05000,Australian,4,350,4.9,Excellent,153,78
2,16587626,Mandoo,"Bank Street, City Centre","3/26 Bank Street, Adelaide, SA",Adelaide,-34.9225175430,138.5974917188,5000,"Korean, Dumplings",2,45,4.8,Excellent,764,290
3,16587409,Indian Temptations,"Main North Road, Enfield","490 Main North Road, Blair Athol",Adelaide,-34.8526305556,138.6004333333,5085,Indian,2,50,4.8,Excellent,403,156
4,16587463,Parwana Afghan Restaurant,"Henley Beach Road, Torrensville","124b Henley Beach Road, Torrensville, Adelaide",Adelaide,-34.9237361111,138.5674583333,5031,"Middle Eastern, Afghan",3,80,4.7,Excellent,607,188
5,16586909,Enzo's Ristorante,"Port Road, Hindmarsh","46 Port Road, Hindmarsh, Adelaide",Adelaide,-34.9080920000,138.5755770000,5007,Italian,4,100,4.7,Excellent,425,136
6,16589254,127 Days,Croydon Park,"127 Days Road, Croydon Park, Adelaide",Adelaide,-34.8758456000,138.5663751000,5008,"American, Burger, Sandwich",2,50,4.7,Excellent,267,123
7,16587476,Kefi Greek Cuisine,"Tapleys Hill Road, Glenelg North","3 61 Tapleys Hill Road, Glenelg North, Adelaide",Adelaide,-34.9703214255,138.5169587284,5045,Greek,3,80,4.7,Excellent,259,92
8,16588256,Chapati House 2,"South Road, Glandore","Shop 6a, 715-727 South Road, Glandore",Adelaide,-34.9633722222,138.5727833333,5035,Indian,3,60,4.7,Excellent,139,52
9,16587245,Wasai Japanese Kitchen,"Field Street, City Centre","15 Field Street, Adelaide",Adelaide,-34.9308757855,138.5961227864,5000,Japanese,3,70,4.6,Excellent,918,252
10,16586858,Chianti,"Hutt Street, City Centre","160 Hutt Street, Adelaide",Adelaide,-34.9307777778,138.6123972222,5000,Italian,3,80,4.6,Excellent,813,228
11,16589382,Bread & Bone Wood Grill,"Peel Street, City Centre","15 Peel Street, Adelaide",Adelaide,-34.9235027778,138.5981305556,5000,"American, Bar Food",3,75,4.6,Excellent,599,236
12,16588445,Ruby Red Flamingo,"Tynte Street, North Adelaide","142 Tynte Street, North Adelaide, Adelaide",Adelaide,-34.9061083333,138.5948194444,5006,Italian,3,80,4.6,Excellent,576,216
13,16586875,Concubine,"Gouger Street, City Centre","132 Gouger Street, Adelaide",Adelaide,-34.9302000000,138.5944833333,5000,Chinese,3,90,4.6,Excellent,421,112
14,16608070,d'Arry's Verandah Restaurant,McLaren Vale,"Osborn Rd, McLaren Vale",Adelaide,-35.1983720000,138.5452420000,5171,"Modern Australian, Australian",1,25000017,4.6,Excellent,208,93
15,16588187,Il Toro,"North East Road, Greenacres","Shop 1, 321 North East Road, Hampstead Gardens, Greenacres, Adelaide",Adelaide,-34.8716888889,138.6361833333,5086,Italian,2,55,4.6,Excellent,138,71
16,16587135,Rena's Thai Kitchen,"Kensington Road, Erindale","370 Kensington Road, Erindale, Kensington, Adelaide",Adelaide,-34.9258097026,138.6629932746,5066,Thai,3,60,4.6,Excellent,131,50
17,16587474,Eggless,"Goodwood Road, Goodwood","162 Goodwood Road, Goodwood, Adelaide",Adelaide,-34.9531027778,138.5896138889,5034,"Desserts, Coffee and Tea, Cafe Food",2,40,4.5,Excellent,632,184
18,16589007,Gin Long Canteen,"O'connell Street, North Adelaide","42 O'Connell Street, North Adelaide",Adelaide,-34.9078321000,138.5968021000,5006,"Malaysian, Thai, Vietnamese",3,70,4.5,Excellent,613,207
19,16586943,Georges on Waymouth,"Waymouth Street, City Centre","20 Waymouth Street, Adelaide",Adelaide,-34.9257861111,138.5992138889,5000,European,4,130,4.5,Excellent,354,131
20,16587898,The Pantry On Egmont,"Egmont Terrace, Hawthorn","2, Egmont Terrace, Hawthorn, Adelaide",Adelaide,-34.9689916667,138.5997166667,5062,"Coffee and Tea, Cafe Food",2,40,4.5,Excellent,416,138
21,16587253,Windy Point Restaurant,Belair,"Windy Point Lookout, Belair Road, Belair,  Adelaide",Adelaide,-34.9978520000,138.6246490000,5052,Modern Australian,4,160,4.5,Excellent,463,128
22,16589171,Tony Tomatoes,"O'connell Street, North Adelaide","155-157 O'Connell Street, North Adelaide",Adelaide,-34.9040111111,138.5950916667,5006,"Italian, Pizza, Bar Food",3,80,4.5,Excellent,298,149
23,16586988,Jasmin Indian,City Centre,"31 Hindmarsh Square, Adelaide",Adelaide,-34.9237361111,138.6050111111,5000,Indian,3,85,4.5,Excellent,470,136
24,16587704,EST Pizzeria,"East Terrace, City Centre","30 East Terrace, Adelaide",Adelaide,-34.9231533887,138.6105175316,5000,"Italian, Pizza",2,50,4.5,Excellent,345,109
25,16588224,Udaberri,"Leigh Street, City Centre","11 Leigh Street, Adelaide",Adelaide,-34.9235638889,138.5976111111,5000,"Spanish, Tapas",3,65,4.5,Excellent,184,57
26,16588236,Lickerish,"Semaphore Road, Semaphore","26 Semaphore Road, Semaphore, Adelaide",Adelaide,-34.8386385000,138.4820065000,,"Pizza, Tapas, Spanish",3,80,4.5,Excellent,284,139
27,16587217,Thea Vegetarian Tea Garden,"Gawler Place, City Centre","110 Gawler Place, Adelaide, City Centre, Adelaide",Adelaide,-34.9252120875,138.6021440104,5000,Asian,2,50,4.5,Excellent,160,43
28,16587722,The Ghan Kebab House,"Prospect Road, Blair Athol","364 Prospect Road, Kilburn",Adelaide,-34.8658944444,138.5925138889,5084,"Middle Eastern, Afghan",2,50,4.5,Excellent,178,73
29,16587914,Sazón Espresso,"Gawler Street, Mount Barker","1 24 Gawler Street, Mount Barker",Adelaide,-35.0673055556,138.8586277778,5251,"Mexican, Coffee and Tea, Cafe Food",3,80,4.5,Excellent,122,47
30,16586759,Amalfi Pizzeria Ristorante,"Rundle Street, City Centre","29 Frome Street, Adelaide, City Centre, Adelaide",Adelaide,-34.9223314342,138.6079905555,5000,"Italian, Pizza",3,85,4.4,Very Good,966,265
31,16588961,Golden Boy,"East Terrace, City Centre","309 North Terrace, Adelaide",Adelaide,-34.9211055556,138.6103833333,5000,"Asian, Thai",3,96,4.4,Very Good,457,195
32,16587995,Press Food and Wine,"Waymouth Street, City Centre","40 Waymouth Street, Adelaide",Adelaide,-34.9259493470,138.5982229561,5000,Modern Australian,4,130,4.4,Very Good,702,249
33,16588155,Lucky Lupitas,"O'connell Street, North Adelaide","Shop 1/163 O'Connell Street, North Adelaide, Adelaide",Adelaide,-34.9039084214,138.5950995237,5042,"Latin American, Mexican",3,60,4.4,Very Good,764,248
34,16587567,Nghi Ngan Quan (NNQ),"Woodville Road, Woodville","65 Woodville Road, Woodville, Adelaide",Adelaide,-34.8782700000,138.5370570000,5011,Vietnamese,3,60,4.4,Very Good,741,258
35,16587417,Yakitori Takumi,"Melbourne Street, North Adelaide","Shop 60, 55 Melbourne Street, North Adelaide",Adelaide,-34.9058944444,138.6096027778,5006,"BBQ, Japanese, Tapas",3,75,4.4,Very Good,336,103
36,16589557,Africola,"East Terrace, City Centre","4 East Terrace, Adelaide",Adelaide,-34.9213621221,138.6107294261,5000,"African, BBQ",4,100,4.4,Very Good,324,151
37,16587131,Red Ochre Grill,North Adelaide,"War Memorial Drive, North Adelaide, Adelaide",Adelaide,-34.9173610000,138.5874650000,5006,Modern Australian,4,130,4.4,Very Good,277,86
38,16587200,Star of Siam,"Gouger Street, City Centre","67 Gouger Street, Adelaide",Adelaide,-34.9303333333,138.5967111111,5000,Thai,3,94,4.4,Very Good,383,117
39,16588195,Pizza e Mozzarella Bar,"Pirie Street, City Centre","33b Pirie Street, Adelaide",Adelaide,-34.9255722222,138.6010138889,5000,"Italian, Pizza",3,80,4.4,Very Good,238,96
40,16586916,Estia,"Seaview Road, Henley Beach","255 Seaview Road, Henley Beach, Adelaide",Adelaide,-34.9197277908,138.4942699224,5022,Greek,3,80,4.4,Very Good,315,127
41,16588832,Sushi Bar Genki,"Gouger Street, City Centre","163 Gouger Street, Adelaide",Adelaide,-34.9305694444,138.5930777778,5000,"Japanese, Sushi",2,35,4.4,Very Good,188,76
42,16588952,Jin's Bibimbar,"Goodwood Road, Westbourne Park","480 Goodwood Road, Cumberland Park",Adelaide,-34.9755814612,138.5916223750,5041,"Asian, Korean",2,40,4.4,Very Good,120,49
43,16589096,Borsa Pasta Cucina,"Grenfell Street, City Centre","25 Grenfell Street, Adelaide, City Centre, Adelaide",Adelaide,-34.9245722222,138.6013194444,5000,Italian,3,90,4.4,Very Good,144,75
44,16587524,Addis Ababa Cafe,"Port Road, West Hindmarsh","4/462 Port Road, West Hindmarsh, Adelaide",Adelaide,-34.8992540000,138.5623170000,5007,"African, Ethiopian",3,60,4.4,Very Good,211,71
45,16588532,Thai By 3 Monkeys,"O'connell Street, North Adelaide","33 O'Connell Street, North Adelaide, Adelaide",Adelaide,-34.9081805556,138.5966805556,5006,Thai,3,60,4.4,Very Good,223,83
46,16587027,Penfolds Magill Estate Restaurant,"Penfold Road, Rosslyn Park","78 Penfold Road, Rosslyn Park,  Adelaide",Adelaide,-34.9209750000,138.6788630000,5072,Modern Australian,4,350,4.4,Very Good,155,52
47,16587416,Lawash Bakery Kabab Shop,"South Road, Torrensville","115 South Road, Torrensville, Adelaide",Adelaide,-34.9185470383,138.5684229434,5031,"Lebanese, Middle Eastern, Bakery",2,30,4.4,Very Good,182,67
48,16587373,Cam Wah Chinese & Vietnamese Restaurant,Kilkenny,"33 Kilkenny Rd, Kilkenny Park, Kilkenny, Adelaide",Adelaide,-34.8865850000,138.5489810000,5011,"Chinese, Vietnamese",1,0,4.4,Very Good,97,29
49,16587214,Taste of Nepal,"The Parade, Beulah Park","300 The Parade, Beulah Park, Adelaide",Adelaide,-34.9209590000,138.6444850000,05068,"Asian, Indian, Tibetan",4,110,4.4,Very Good,122,48
50,16587676,Sushi Train,Welland,"Welland Plaza, Shop 25, 522 Port Road, Welland",Adelaide,-34.8964111111,138.5569305556,5007,"Sushi, Japanese",2,35,4.4,Very Good,155,31
51,16587238,Vietnam Restaurant,"Addison Road, Pennington","73 Addison Road, Pennington, Adelaide",Adelaide,-34.8569588868,138.5290316865,5013,Vietnamese,3,70,4.3,Very Good,505,154
52,16589483,Delicatessen Kitchen and Bar,"Waymouth Street, City Centre","12 Waymouth Street, Adelaide, City Centre, Adelaide",Adelaide,-34.9255870000,138.5991010000,5000,"European, Bar Food, Coffee and Tea, Cafe Food",3,65,4.3,Very Good,139,75
53,16588439,Adelaide Pho,City Centre,"199 Waymouth Street, Adelaide",Adelaide,-34.9262283603,138.5921779275,5000,"Vietnamese, Asian",2,55,4.3,Very Good,352,135
54,16586963,The Greek on Halifax,"Halifax Street, City Centre","75-79 Halifax Street, Adelaide",Adelaide,-34.9329300000,138.6032560000,5000,"Greek, Coffee and Tea, Cafe Food",3,80,4.3,Very Good,405,118
55,16587584,Singapore House,"Glen Osmond Road, Fullarton","203 Glen Osmond Road, Frewville",Adelaide,-34.9481416667,138.6283555556,5063,"Asian, Indian, Singaporean",3,80,4.3,Very Good,402,134
56,16587731,Melt CBD,"Waymouth Street, City Centre","38 Waymouth Street, Adelaide",Adelaide,-34.9259416667,138.5982972222,5000,"Pizza, Tapas",3,60,4.3,Very Good,390,124
57,16587053,Melt Pizzeria,"King William Road, Goodwood","160 King William Road, Goodwood",Adelaide,-34.9547316478,138.6001293361,5061,"Pizza, Tapas",3,70,4.3,Very Good,452,104
58,16586765,Apothecary 1878,"Hindley Street, City Centre","118 Hindley Street, Adelaide, City Centre, Adelaide",Adelaide,-34.9232250000,138.5952000000,5000,"European, Tapas",3,80,4.3,Very Good,247,85
59,16587651,Thanh Thanh,"Field Street, City Centre","18 Field Street, Adelaide",Adelaide,-34.9308550000,138.5961760000,5000,"Asian, Vietnamese",3,65,4.3,Very Good,355,116
60,16588160,Taverna Greek Psistaria,"Drayton Street, Bowden","290 Port Road, Hindmarsh, Adelaide",Adelaide,-34.9035400000,138.5686950000,5007,Greek,3,80,4.3,Very Good,226,104
61,16587382,Sabai Cafe,Glenelg South,"105 Partridge Street, Glenelg South",Adelaide,-34.9906272649,138.5184621066,5045,"Thai, Coffee and Tea, Cafe Food",2,50,4.3,Very Good,196,61
62,16587079,Nu Thai,"Morphett Street, City Centre","228 Morphett Street, Adelaide, City Centre, Adelaide",Adelaide,-34.9283611111,138.5939944444,5000,Thai,4,100,4.3,Very Good,233,86
63,16587696,FB's Fancy Burgers,"Main Road, Blackwood","Shop 4, 237 Main Road, Blackwood",Adelaide,-35.0200388889,138.6165472222,5051,Burger,2,40,4.3,Very Good,373,121
64,16586951,Good Life Modern Organic Pizza,City Centre,"170 Hutt Street, Adelaide",Adelaide,-34.9312555556,138.6123194444,5000,Pizza,3,60,4.3,Very Good,294,62
65,16587554,Parisi's Restaurant Hyde Park,"King William Road, Unley","138 King William Road, Unley, Adelaide",Adelaide,-34.9536666667,138.5998694444,5034,"European, Italian, Pizza",3,85,4.3,Very Good,213,81
66,16587587,Pho Baria 2,"Hanson Road, Woodville Gardens","54c Hanson Road, Woodville Gardens, Adelaide",Adelaide,-34.8681440109,138.5480539128,5012,Vietnamese,2,40,4.3,Very Good,162,71
67,16587134,Regent Thai,"O'connell Street, North Adelaide","165 O'Connell Street, North Adelaide",Adelaide,-34.9037800130,138.5949805006,5006,Thai,3,75,4.3,Very Good,197,75
68,16588539,Cantina Sociale,"Sturt Street, City Centre","108 Sturt Street, Adelaide",Adelaide,-34.9329980597,138.5963135585,5000,"Spanish, Tapas, Bar Food",3,60,4.3,Very Good,99,34
69,16588554,Faraja,Goodwood,94 Carrington St Adelaide 5000,Adelaide,-34.9476972222,138.5994861111,5034,"Bar Food, Modern Australian",3,80,4.3,Very Good,150,71
70,16587946,Saigon Gate,"Prospect Road, Kilburn","402 Prospect Road, Kilburn, Adelaide",Adelaide,-34.8634555556,138.5925305556,5084,Vietnamese,2,50,4.3,Very Good,116,43
71,16587565,Ginling Chinese Restaurant,"Marion Road, Park Holme","609 Marion Road, South Plympton, Park Holme, Adelaide",Adelaide,-34.9819944444,138.5562444444,5038,"Asian, Chinese",2,50,4.3,Very Good,133,47
72,16587123,Queen's Head Hotel,"Kermode Street, North Adelaide","117 Kermode Street, North Adelaide",Adelaide,-34.9115870000,138.5964660000,5006,Modern Australian,3,90,4.3,Very Good,132,51
73,16587196,Stamps,Mitcham,"12 Welbourne Street, Mitcham",Adelaide,-34.9791569167,138.6209707707,5062,Modern Australian,3,80,4.3,Very Good,113,44
74,16587143,Rising Sun Inn,"Bridge Street, Kensington","60 Bridge Street, Kensington",Adelaide,-34.9248432000,138.6444090000,5068,"Mediterranean, Tapas",3,80,4.3,Very Good,125,49
75,16608075,The Currant Shed,McLaren Flat,"Ingolby Rd, McLaren Flat",Adelaide,-35.2048150000,138.5939640000,5171,Modern Australian,2,30,4.3,Very Good,79,39
76,16587156,Samui Thai,"Greenhill Road, Hazelwood Park","548 Greenhill Road, Hazelwood Park",Adelaide,-34.9384157807,138.6597665772,5066,Thai,3,70,4.3,Very Good,87,45
77,16587069,Namaste Nepalese Restaurant,Parkside,"41 George Street, Parkside",Adelaide,-34.9453416667,138.6131277778,5063,"Indian, Tibetan",3,65,4.3,Very Good,114,37
78,16586771,Arya Fine Indian Cuisine,"O'connell Street, North Adelaide","North Adelaide Village, 81 O'Connell Street, North Adelaide",Adelaide,-34.9067333333,138.5955805556,5006,Indian,3,80,4.3,Very Good,161,76
79,16587600,Taste of Bollywood,"Port Road, Hindmarsh","130 Port Road, Hindmarsh, Hindmarsh, Adelaide",Adelaide,-34.9034701272,138.5687283799,5007,Indian,3,65,4.3,Very Good,120,66
80,16586855,Chefs of Tandoori,"Unley Road, Hyde Park","259 Unley Road, Malvern",Adelaide,-34.9572140000,138.6082150000,5061,Indian,3,90,4.3,Very Good,99,42
81,16587534,Lobethal Bierhaus,"Main Street, Lobethal","3a Main Street, Lobethal, Adelaide",Adelaide,-34.9079700000,138.8736270000,5241,Modern Australian,4,100,4.3,Very Good,91,36
82,16588009,Betel Leaf Cafe,"Grange Road, Seaton","Shop 2, 403 Grange Road, Seaton, Adelaide",Adelaide,-34.9058138889,138.5234527778,5023,"Asian, Vietnamese",2,50,4.3,Very Good,88,36
83,16588069,British Raj,"Henley Beach Road, Torrensville","170 Henley Beach Road, Torrensville, Adelaide",Adelaide,-34.9241028872,138.5621063411,5031,Indian,2,40,4.3,Very Good,106,58
84,18050804,Osteria Oggi,"Pirie Street, City Centre","76 Pirie Street, City Centre, Adelaide",Adelaide,-34.9257500000,138.6025555556,5000,"European, Italian",3,95,4.2,Very Good,254,116
85,16588799,Nordburger,"The Parade, Norwood","168 The Parade, Norwood",Adelaide,-34.9213361111,138.6353444444,5067,"American, Burger, Ice Cream",2,40,4.2,Very Good,677,219
86,16588258,Cafe Troppo,"Whitmore Square, City Centre","42 Whitmore Square, Adelaide",Adelaide,-34.9331992620,138.5949013755,5000,"Coffee and Tea, Cafe Food",2,40,4.2,Very Good,299,111
87,16586941,Gaucho's,"Moonta Street, City Centre","91 Gouger Street, Adelaide",Adelaide,-34.9303638889,138.5959777778,5000,"Argentine, Steak",4,160,4.2,Very Good,505,171
88,16586892,Ding Hao Restaurant,"Gouger Street, City Centre","26-28 Gouger Street, Adelaide",Adelaide,-34.9303694444,138.5982666667,5000,Chinese,2,45,4.2,Very Good,431,120
89,16588570,Burgastronomy,"O'connell Street, North Adelaide","19 O'Connell Street, North Adelaide, Adelaide",Adelaide,-34.9087777778,138.5967722222,5006,"American, Burger",2,50,4.2,Very Good,427,135
90,16588709,Le Carpe Diem Cafe Creperie,City Centre,"230-232 Grenfell Street, Adelaide",Adelaide,-34.9239033120,138.6097296327,5000,"French, Coffee and Tea, Cafe Food",2,30,4.2,Very Good,276,121
91,16587007,La Trattoria,"King William Street, City Centre","346 King William Street, Adelaide",Adelaide,-34.9323361111,138.6000222222,5000,"Italian, Pizza, Seafood",3,80,4.2,Very Good,438,157
92,16587540,Shiki,City Centre,"Intercontinental Hotel, Upper Lobby Level, North Terrace, Adelaide",Adelaide,-34.9215770000,138.6005550000,,Japanese,4,125,4.2,Very Good,240,79
93,16587002,Ky Chow,"Gouger Street, City Centre","27 Gouger Street, Adelaide, City Centre, Adelaide",Adelaide,-34.9303470000,138.5982510000,5000,Chinese,3,60,4.2,Very Good,269,88
94,16588226,The Topiary Cafe,Tea Tree Gully,"1361 North East Road, Tea Tree Gully",Adelaide,-34.8224916667,138.7362222222,5131,"Desserts, Modern Australian, Coffee and Tea, Cafe Food",3,90,4.2,Very Good,129,64
95,16586992,Jolley's Boathouse,City Centre,"1 Jolleys Lane, City Centre, Adelaide",Adelaide,-34.9170110000,138.6002960000,5000,"Seafood, Modern Australian",4,120,4.2,Very Good,233,93
96,16588907,The Gallery,"Waymouth Street, City Centre","30 Waymouth Street, Adelaide, City Centre, Adelaide",Adelaide,-34.9258722222,138.5983111111,5000,"Tapas, Bar Food",4,100,4.2,Very Good,166,89
97,16587014,Lenzerheide Restaurant,Kingswood,"146 Belair Road, Kingswood, Adelaide",Adelaide,-34.9720472222,138.6091916667,5062,European,4,120,4.2,Very Good,233,82
98,16589555,Sukhumvit Soi 38,City Centre,"54 Pulteney Street, Adelaide",Adelaide,-34.9231305721,138.6054790020,5000,Thai,3,90,4.2,Very Good,145,78
99,16586902,East Taste Cafe,"Gouger Street, City Centre","119 Gouger Street, Adelaide",Adelaide,-34.9305000000,138.5951840000,5000,"Asian, Chinese",2,50,4.2,Very Good,260,82
