,Restaurant_id,Name,Locality,Address,City,Latitude,Longitude,Zip Code,Cuisines,Price Range,Average Cost for two,User Rating,Rating Text,Votes,all_reviews_count
0,16585905,Tipo 00,CBD,"361 Little Bourke Street, CBD, Melbourne",Melbourne,-37.8135277429,144.9619733915,3000,Italian,4,150,4.9,Excellent,1927,716
1,16586014,Minamishima,Richmond,"4 Lord Street, Richmond, Melbourne, VIC",Melbourne,-37.8198314176,145.0051938370,3121,"Japanese, Sushi",4,450,4.9,Excellent,747,290
2,16572612,Vue de monde,CBD,"Level 55, Rialto, 525 Collins Street, CBD, Melbourne",Melbourne,-37.8189544974,144.9579336494,3000,"Australian, Contemporary",4,600,4.9,Excellent,3225,986
3,17881527,Dexter,Preston,"456 High Street, Preston, Melbourne",Melbourne,-37.7361956460,145.0044562295,,"American, BBQ",4,110,4.9,Excellent,1473,682
4,16574138,Suzuran,Camberwell,"1025 Burke Road, Camberwell, Melbourne",Melbourne,-37.8217645249,145.0584645197,3124,"Japanese, Sushi",2,35,4.9,Excellent,803,194
5,16575773,Scopri Italian Food & Wine,Carlton,"191, Nicholson Street, Carlton, Melbourne",Melbourne,-37.7957182787,144.9751148745,3053,Italian,4,180,4.9,Excellent,458,193
6,16575846,Pho Hung Vuong Springvale,Springvale,"Shop 2, 15 Balmoral Avenue, Springvale, Melbourne",Melbourne,-37.9494092102,145.1510185003,3171,"Vietnamese, Pho",2,40,4.9,Excellent,923,305
7,16580129,Yeonga Korean BBQ Restaurant,North Melbourne,"1 Cobden Street, North Melbourne, Melbourne",Melbourne,-37.8056389159,144.9570951238,3051,"Korean BBQ, Korean, BBQ",4,100,4.8,Excellent,1564,520
8,16582887,Rice Paper Scissors,CBD,"15, Hardware Lane, CBD, Melbourne",Melbourne,-37.8143130000,144.9614020000,3000,"Asian Fusion, Tapas",3,80,4.8,Excellent,2565,990
9,16572320,Shira Nui,Glen Waverley,"247 Springvale Road, Glen Waverley, Melbourne",Melbourne,-37.8788198823,145.1657683030,3150,"Sushi, Japanese",4,150,4.8,Excellent,1634,420
10,16570775,Attica,Ripponlea,"74 Glen Eira Road, Ripponlea, Melbourne",Melbourne,-37.8769242618,144.9973121658,3185,"Australian, Contemporary",4,600,4.8,Excellent,1485,491
11,16572155,Punch Lane,CBD,"43 Little Bourke Street, CBD, Melbourne",Melbourne,-37.8108116997,144.9713500589,3000,"Mediterranean, Modern Australian",4,150,4.8,Excellent,1089,428
12,17868098,Bahari The Hellenic Palate,Richmond,"179 Swan Street, Richmond, Melbourne, VIC",Melbourne,-37.8255876855,144.9975740165,3121,Greek,3,80,4.8,Excellent,755,394
13,16573311,The Proud Peacock,Mount Waverley,"28 Hamilton Place, Mount Waverley, Melbourne",Melbourne,-37.8759680969,145.1287893578,3149,"Chinese, Thai, Vietnamese",2,45,4.8,Excellent,1352,625
14,16579337,Aka Siro,Collingwood,"106, Cambridge Street, Collingwood, Melbourne",Melbourne,-37.8051562667,144.9855748192,3066,Japanese,3,80,4.8,Excellent,841,236
15,16574371,Railway Club Hotel Port Melbourne,Port Melbourne,"107 Raglan Street, Port Melbourne, Melbourne",Melbourne,-37.8338037913,144.9444773421,3207,"Steak, Pub Food",4,120,4.8,Excellent,862,308
16,16571744,Lentil As Anything,Abbotsford,"1-3 St Heliers Street, Abbotsford, Melbourne",Melbourne,-37.8027048265,145.0035664067,3067,"Vegetarian, Vegan",1,25,4.8,Excellent,977,247
17,16585400,Hakata Gensuke Ramen Professionals,CBD,"168 Russell Street, CBD, Melbourne",Melbourne,-37.8123360761,144.9680422247,3000,"Ramen, Japanese",3,50,4.7,Excellent,2334,842
18,16582069,Jinda Thai Restaurant,Abbotsford,"7 Ferguson Street, Abbotsford, Melbourne",Melbourne,-37.8093087478,144.9923685193,3067,Thai,3,80,4.7,Excellent,3231,1031
19,16571189,Cumulus Inc.,CBD,"Ground Level, 45 Flinders Lane, CBD, Melbourne",Melbourne,-37.8147943480,144.9731357396,3000,"Modern European, Contemporary",4,150,4.7,Excellent,4951,1125
20,16582573,Mr. Miyagi,Windsor,"99 Chapel Street, Windsor, Melbourne, VIC",Melbourne,-37.8542571942,144.9928734452,3181,"Asian, Japanese",3,80,4.7,Excellent,2022,905
21,16583132,Wagyu Ya,South Yarra,"156 Toorak Road, South Yarra, Melbourne",Melbourne,-37.8390487401,144.9913958833,3141,"Japanese, Steak, Japanese BBQ",4,150,4.7,Excellent,1116,384
22,16571938,MoVida Bar De Tapas,CBD,"1 Hosier Lane, CBD, Melbourne",Melbourne,-37.8167026904,144.9691895396,3000,"Spanish, Tapas",4,120,4.7,Excellent,4323,898
23,16577621,Komeyui,South Melbourne,"181 Ferrars Street, South Melbourne, Melbourne",Melbourne,-37.8302880000,144.9538430000,3207,"Japanese, Japanese BBQ",4,150,4.7,Excellent,769,244
24,16573067,Cutler & Co,Fitzroy,"55-57 Gertrude Street, Fitzroy, Melbourne",Melbourne,-37.8055705717,144.9759430066,3065,Modern Australian,4,200,4.7,Excellent,2075,569
25,16572325,Shoya Nouvelle Wafu Cuisine,CBD,"25 Market Lane, CBD, Melbourne",Melbourne,-37.8117808942,144.9692287669,3000,"Japanese, Sushi, Japanese BBQ",4,140,4.7,Excellent,1511,386
26,16578925,Hell of the North,Fitzroy,"135 Greeves Street, Fitzroy, Melbourne",Melbourne,-37.8003351649,144.9835487455,3065,"French, European",4,135,4.7,Excellent,1335,418
27,16571812,Maha Restaurant,CBD,"21 Bond Street, CBD, Melbourne",Melbourne,-37.8181668230,144.9626845121,3000,Middle Eastern,4,300,4.7,Excellent,2638,929
28,16582991,Sezar,CBD,"6 Melbourne Place, CBD, Melbourne",Melbourne,-37.8134347730,144.9688998610,3000,Middle Eastern,4,120,4.7,Excellent,944,410
29,16571710,Laksa King,Flemington,"6-12 Pin Oak Crescent, Flemington, Melbourne",Melbourne,-37.7877957536,144.9294968694,3031,"Malaysian, Chinese",3,70,4.7,Excellent,4967,1302
30,16572254,Rumi Brunswick,Brunswick,"116 Lygon Street, East Brunswick, Melbourne",Melbourne,-37.7748421244,144.9712652341,3057,Middle Eastern,4,100,4.7,Excellent,1792,470
31,16571144,Claypots Seafood Bar,St Kilda,"213 Barkly Street, St Kilda, Melbourne, VIC",Melbourne,-37.8699640609,144.9806107208,3182,Seafood,3,90,4.7,Excellent,1336,356
32,16571694,La Luna Bistro,Carlton North,"320 Rathdowne Street, Carlton North, Melbourne",Melbourne,-37.7911334282,144.9718352035,3054,"Modern Australian, Steak, Mediterranean",4,160,4.7,Excellent,1450,415
33,16580906,Milk the Cow,St Kilda,"157 Fitzroy Street, St Kilda, Melbourne, VIC",Melbourne,-37.8588823312,144.9794898927,3182,Bar Food,3,80,4.7,Excellent,631,256
34,16570870,Bistro Thierry,Toorak,"511 Malvern Road, Toorak, Melbourne, VIC",Melbourne,-37.8482442410,145.0038185343,3141,French,4,200,4.7,Excellent,799,242
35,16571855,Matteo's Restaurant,Fitzroy North,"533, Brunswick Street, Fitzroy North, Melbourne",Melbourne,-37.7911649575,144.9795908108,3068,"Asian, Fusion",4,280,4.7,Excellent,755,262
36,16571541,Il Bacaro Cucina e Bar,CBD,"168-170 Little Collins Street, CBD, Melbourne",Melbourne,-37.8139189572,144.9680127204,3000,Italian,4,200,4.7,Excellent,682,219
37,16572845,Pho Hung Vuong Saigon,Footscray,"128 Hopkins Street, Footscray, Melbourne",Melbourne,-37.7998159220,144.9006503820,3011,"Vietnamese, Pho",2,40,4.7,Excellent,1102,362
38,16573923,Aoba,Malvern,"279 Glenferrie Road, Malvern, Melbourne",Melbourne,-37.8569867272,145.0291385874,3144,Japanese,3,50,4.7,Excellent,637,194
39,16577899,Myong Tofu,Flemington,"314 Racecourse Road, Flemington, Melbourne",Melbourne,-37.7881076154,144.9302398413,,"Malaysian, Chinese",3,70,4.7,Excellent,694,312
40,16570683,A1 Bakery,Brunswick,"643-645 Sydney Road, Brunswick, Melbourne",Melbourne,-37.7620394278,144.9628776312,3056,"Bakery, Middle Eastern",2,30,4.7,Excellent,916,248
41,16570691,The Abyssinian,Flemington,"277 Racecourse Road, Flemington, Melbourne",Melbourne,-37.7885320846,144.9318387732,3031,"African, Ethiopian",3,60,4.7,Excellent,632,201
42,16574463,Katik Take Away Food,Campbellfield,"349 Barry Road, Campbellfield, Melbourne, VIC",Melbourne,-37.6668740186,144.9482334405,3061,"Middle Eastern, Turkish",2,40,4.7,Excellent,284,109
43,16573158,Fresh Chilli Thai Restaurant,Laverton,"Shop 11, 5 Aviation Road, Laverton, Melbourne",Melbourne,-37.8674385462,144.7619231790,0,"Asian, Thai",3,60,4.7,Excellent,464,193
44,16577492,Chin Chin,CBD,"125 Flinders Lane, CBD, Melbourne",Melbourne,-37.8155645773,144.9703757465,3000,"Thai, Asian Fusion",4,135,4.6,Excellent,10756,3205
45,16578345,San Telmo,CBD,"14 Meyers Place, CBD, Melbourne",Melbourne,-37.8122960798,144.9723887444,3000,Steak,4,120,4.6,Excellent,2377,769
46,18584637,Dodee Paidang,CBD,"Basement, 353 Equitable Place, CBD, Melbourne",Melbourne,-37.8157595172,144.9631257355,3000,Thai,3,75,4.6,Excellent,1285,467
47,16572269,Sakura Kaiten Sushi,CBD,"61 Little Collins Street, CBD, Melbourne",Melbourne,-37.8128928430,144.9717513844,0,"Sushi, Japanese",3,60,4.6,Excellent,1853,434
48,16573473,Peko Peko,South Melbourne,"190 Wells Street, South Melbourne, Melbourne",Melbourne,-37.8318858285,144.9697920308,3205,"Taiwanese, Japanese, Asian",3,50,4.6,Excellent,1987,513
49,16572962,+39 Pizzeria,CBD,"362 Little Bourke Street, CBD, Melbourne",Melbourne,-37.8134906609,144.9618449807,3000,"Pizza, Italian",4,100,4.6,Excellent,2702,807
50,16571628,Kenzan Japanese,Collins Place,"Collins Place, Lower Ground Level, 45 Collins Street, CBD, Melbourne",Melbourne,-37.8146303951,144.9727967754,3000,"Japanese, Sushi",4,160,4.6,Excellent,964,262
51,16571240,DOC Pizza & Mozzarella Bar - Carlton,Carlton,"295 Drummond Street, Carlton, Melbourne",Melbourne,-37.7989620774,144.9685729668,3053,"Italian, Pizza",3,70,4.6,Excellent,3658,921
52,16573419,Coda,CBD,"Entrance at Oliver Lane, Basement, 141 Flinders Lane, CBD, Melbourne",Melbourne,-37.8158217601,144.9699640274,3000,"Asian, Fusion",4,145,4.6,Excellent,1987,562
53,16576154,Naked For Satan,Fitzroy,"285 Brunswick Street, Fitzroy, Melbourne",Melbourne,-37.7987986192,144.9783268198,3065,Bar Food,3,80,4.6,Excellent,4561,875
54,16579873,Shimbashi Soba & Sake Bar,CBD,"17 Liverpool Street, CBD, Melbourne",Melbourne,-37.8113361629,144.9714006856,3000,"Japanese, Tapas",3,55,4.6,Excellent,1084,365
55,16576477,Purple Peanuts Japanese Cafe,CBD,"620 Collins Street, CBD, Melbourne",Melbourne,-37.8188464377,144.9545490369,3000,"Japanese, Sushi",2,40,4.6,Excellent,2146,491
56,16574121,Don Don,CBD,"198 Little Lonsdale Street, CBD, Melbourne",Melbourne,-37.8107603127,144.9635954574,3000,"Japanese, Asian",2,30,4.6,Excellent,3167,693
57,16575158,Yong Green Food,Fitzroy,"421 Brunswick Street, Fitzroy, Melbourne",Melbourne,-37.7943851114,144.9790513516,3065,"Asian, Vegan, Vegetarian",3,90,4.6,Excellent,1798,444
58,16582542,Ichi Ichi Ku,South Yarra,"119 Park Street, South Yarra, Melbourne",Melbourne,-37.8344464553,144.9821992591,3141,"Japanese, Sushi",3,80,4.6,Excellent,772,287
59,16581307,Tonka,CBD,"20 Duckboard, CBD, Melbourne",Melbourne,-37.8157052201,144.9714006856,3000,"Indian, Contemporary",4,145,4.6,Excellent,1170,444
60,16585319,Pastuso,CBD,"19 ACDC Lane, CBD, Melbourne",Melbourne,-37.8158421546,144.9710432813,3000,"Latin American, Peruvian",4,125,4.6,Excellent,997,441
61,16571931,Moroccan Soup Bar,Fitzroy North,"183 St Georges Road, Fitzroy North, Melbourne",Melbourne,-37.7848848031,144.9823538214,3068,"Middle Eastern, Moroccan, Vegetarian, Vegan",2,40,4.6,Excellent,2253,457
62,18235287,Amaru,Armadale,"Shop 5, 1121 High Street, Armadale, Melbourne",Melbourne,-37.8559715359,145.0249432772,,Contemporary,4,450,4.6,Excellent,331,126
63,16574218,BrimCC,CBD,"Shop 2, 601 Little Collins Street, CBD, Melbourne",Melbourne,-37.8178720389,144.9548001587,3000,Japanese,2,40,4.6,Excellent,791,208
64,16573049,Oasis,Hughesdale & Murrumbeena,"Shop 9, 993 North Road, Hughesdale & Murrumbeena, Melbourne",Melbourne,-37.9073917122,145.0701498985,3163,"Bakery, Middle Eastern, Cafe Food, Coffee and Tea",3,55,4.6,Excellent,1260,458
65,16570741,Añada,Fitzroy,"197 Gertrude Street, Fitzroy, Melbourne",Melbourne,-37.8060918933,144.9811686203,3065,"Spanish, Tapas",4,110,4.6,Excellent,1232,374
66,16571353,Flower Drum,CBD,"17 Market Lane, CBD, Melbourne",Melbourne,-37.8119273715,144.9692998454,3000,Chinese,4,200,4.6,Excellent,1190,391
67,16570811,Bar Lourinhã,CBD,"37 Little Collins Street, CBD, Melbourne",Melbourne,-37.8127039877,144.9724739045,3000,"Spanish, Tapas",4,120,4.6,Excellent,1483,274
68,16576185,Steer Dining Room,South Yarra,"15 Claremont Street, South Yarra, Melbourne",Melbourne,-37.8377081467,144.9936693907,3141,"Modern Australian, Steak",4,220,4.6,Excellent,1057,395
69,16571552,Il Solito Posto,CBD,"Basement, 113 Collins Street, CBD, Melbourne",Melbourne,-37.8149206895,144.9702775106,3000,Italian,4,110,4.6,Excellent,1171,287
70,16570927,Breizoz French Creperie,Fitzroy,"Corner Gertrude & Brunswick Streets, Fitzroy, Melbourne",Melbourne,-37.8057816968,144.9767872319,3065,"Crepes, Desserts, Cafe Food",3,50,4.6,Excellent,813,227
71,16571254,Donovans,St Kilda,"40 Jacka Boulevard, St Kilda, Melbourne, VIC",Melbourne,-37.8685443628,144.9752047285,3182,Modern Australian,4,190,4.6,Excellent,1181,316
72,16574137,Tsukiji,Prahran,"237 High Street, Prahran, Melbourne, VIC",Melbourne,-37.8521367132,144.9958755076,3181,"Japanese, Sushi",3,60,4.6,Excellent,503,177
73,16571718,Lau's Family Kitchen,St Kilda,"4 Acland Street, St Kilda, Melbourne, VIC",Melbourne,-37.8626445412,144.9744815379,3182,"Asian, Chinese",4,170,4.6,Excellent,905,250
74,16582125,Tuck Shop Take Away,Caulfield,"273 Hawthorn Road, Caulfield North, Melbourne",Melbourne,-37.8799728974,145.0234006718,3161,Burger,2,40,4.6,Excellent,987,378
75,16578365,Ziggy's Eatery,Balaclava,"195 Carlisle Street, Balaclava, Melbourne, VIC",Melbourne,-37.8690022475,144.9934896827,3183,"American, Burger",3,50,4.6,Excellent,768,346
76,16572727,MoVida Next Door,CBD,"164 Flinders Street, CBD, Melbourne",Melbourne,-37.8168001589,144.9692291021,3000,"Spanish, Tapas",3,90,4.6,Excellent,1181,276
77,16571873,The Melbourne Supper Club,CBD,"Level 1, 161 Spring Street, CBD, Melbourne",Melbourne,-37.8108705034,144.9726562947,3000,Modern European,3,90,4.6,Excellent,960,187
78,16571591,Teppanyaki Inn,CBD,"182 Collins Street, CBD, Melbourne",Melbourne,-37.8148928785,144.9675885961,0,"Japanese, Teppanyaki",4,160,4.6,Excellent,460,124
79,16576637,Byblos,"World Trade Centre, Docklands","World Trade Centre, 18-38 Siddeley Street, Docklands, Melbourne",Melbourne,-37.8232923828,144.9535807595,3000,"Mediterranean, Middle Eastern, Lebanese",4,120,4.6,Excellent,653,271
80,16580785,Blu by Australian Seafood Fish & Chippery,Coburg,"146 Gaffney Street, Coburg, Melbourne",Melbourne,-37.7328337482,144.9540950730,3058,"Fish and Chips, Seafood",2,40,4.6,Excellent,599,280
81,16573379,Dandenong Pavilion,Dandenong,"55-61A Princes Highway, Dandenong, Melbourne",Melbourne,-37.9820749677,145.2107063681,3175,"Modern Australian, Burger",4,100,4.6,Excellent,1174,502
82,16580700,Spring Street Grocer,CBD,"157 Spring Street, CBD, Melbourne",Melbourne,-37.8110479735,144.9726968631,3000,"Ice Cream, Cafe Food",1,25,4.6,Excellent,590,181
83,16571132,Cicciolina,St Kilda,"130 Acland Street, St Kilda, Melbourne, VIC",Melbourne,-37.8687029024,144.9799532443,3182,"Italian, Modern Australian",4,120,4.6,Excellent,1361,315
84,16571105,Chez Olivier - Le Bistro,South Yarra,"268 Toorak Road, South Yarra, Melbourne ",Melbourne,-37.8396728239,144.9962878972,3141,French,4,150,4.6,Excellent,748,284
85,16575612,Umberto Espresso Bar,Thornbury,"822 High Street, Thornbury, Melbourne",Melbourne,-37.7533782094,145.0017311052,3071,"Italian, Cafe Food",3,90,4.6,Excellent,694,239
86,16571439,The Grand Richmond,Richmond,"333 Burnley Street, Richmond, Melbourne, VIC",Melbourne,-37.8247253994,145.0075179711,3121,"Italian, Pub Food",4,150,4.6,Excellent,695,310
87,16571958,Napier Hotel,Fitzroy,"210 Napier Street, Fitzroy, Melbourne",Melbourne,-37.8017882308,144.9802905321,3065,"Pub Food, Modern Australian",3,80,4.6,Excellent,1007,252
88,16576707,Sumalee,Bentleigh,"260 Centre Road, Bentleigh, Melbourne",Melbourne,-37.9176467349,145.0309631601,3204,Thai,3,60,4.6,Excellent,508,190
89,16581751,O.MY,Beaconsfield,"19 Woods Street, Beaconsfield, Melbourne",Melbourne,-38.0462338720,145.3674747795,3807,Australian,4,300,4.6,Excellent,346,177
90,16571138,City Wine Shop,CBD,"159 Spring Street, CBD, Melbourne",Melbourne,-37.8109287772,144.9727196619,3000,European,3,80,4.6,Excellent,556,155
91,16573491,Demitri's Feast,Richmond,"141 Swan Street, Richmond, Melbourne, VIC",Melbourne,-37.8253988626,144.9959512800,3121,"Greek, Grill",3,55,4.6,Excellent,650,185
92,16580639,Yokoso Izakaya,Moonee Ponds,"702 Mount Alexander Road, Moonee Ponds, Melbourne, VIC",Melbourne,-37.7685367301,144.9254661799,3039,"Japanese, Sushi",3,80,4.6,Excellent,511,169
93,16578238,The Moor's Head,Thornbury,"Rear 774 High Street, Thornbury, Melbourne",Melbourne,-37.7548170889,145.0017884374,3071,"Middle Eastern, Pizza",3,90,4.6,Excellent,607,176
94,16572722,Sette Bello,Glen Waverley,"540 Springvale Road, Glen Waverley, Melbourne",Melbourne,-37.9020405141,145.1623230055,3150,Italian,4,150,4.6,Excellent,621,249
95,16575224,Khao San Road,Moonee Ponds,"696 Mount Alexander Road, Moonee Ponds, Melbourne, VIC",Melbourne,-37.7686936294,144.9255268648,3039,Thai,3,90,4.6,Excellent,586,216
96,16571200,Da Noi,South Yarra,"95 Toorak Road, South Yarra, Melbourne",Melbourne,-37.8386687798,144.9896447361,3141,"Italian, Mediterranean",4,120,4.6,Excellent,500,165
97,19245843,Lanzhou Beef Noodle Bar,"Chadstone Shopping Centre, Chadstone","Chadstone Shopping Centre, Ground Level, Shop F021, 1341 Dandenong Road, Chadstone, Melbourne",Melbourne,-37.8873994489,145.0839448348,,"Chinese, Fast Food",2,40,4.6,Excellent,1108,934
98,18756821,Lanzhou Beef Noodle Bar,"The Glen, Glen Waverley","The Glen, Ground Floor, G050, 235 Springvale Rd, Glen Waverley",Melbourne,-37.8746339972,145.1660425589,3150,"Chinese, Fast Food",2,40,4.6,Excellent,1461,1053
99,16582254,Afghan Rahimi Restaurant,Dandenong,"23-29 Walker Street,   Dandenong, Dandenong, Melbourne",Melbourne,-37.9882064699,145.2118171379,3175,"Middle Eastern, Afghan",3,80,4.6,Excellent,450,293
